{"version":0.6,"generator":"Tel Aviv metro one-time snapshot 2026-07-15","osm3s":{"timestamp_osm_base":"2026-07-15T18:10:15Z","copyright":"The data included in this document is from www.openstreetmap.org. The data is made available under ODbL."},"elements":[{"type":"node","id":412398150,"lat":32.0853654,"lon":34.7717148,"tags":{"addr:housenumber":"15","name":"בית בן גוריון","name:en":"Ben Gurion House","name:he":"בית בן גוריון","name:hi":"बेन गुरियन भवन","tourism":"museum","wikidata":"Q1846184"}},{"type":"node","id":429882211,"lat":32.0729245,"lon":34.7709561,"tags":{"name":"בית ביאליק","name:en":"Bialik Museum","name:he":"בית ביאליק","opening_hours":"Mo-Th 09:00-17:00; Fr,Sa,PH 10:00-14:00; Su off","tourism":"museum","wikidata":"Q4902448"}},{"type":"node","id":429882215,"lat":32.0720773,"lon":34.7706975,"tags":{"name":"בית ראובן רובין","name:en":"Rubin Museum","name:he":"בית ראובן רובין","opening_hours":"Mo-Fr 10:00-15:00; Tu 10:00-20:00; Sa 11:00-14:00; Su off","tourism":"museum","wikidata":"Q6726495"}},{"type":"node","id":432291824,"lat":31.9167161,"lon":35.1850254,"tags":{"name":"Al Zaytonah Theme Park For Kids","name:ar":"منتزه الزيتونة للاطفال","name:en":"Al Zaytonah Theme Park For Kids","tourism":"theme_park"}},{"type":"node","id":432393593,"lat":32.3219423,"lon":35.0294609,"tags":{"name":"Mega Land","name:ar":"مدينة المجا لاند","tourism":"theme_park"}},{"type":"node","id":432418124,"lat":32.3138875,"lon":35.0282944,"tags":{"name":"Tulkarm","name:ar":"متحف طولكرم","tourism":"museum"}},{"type":"node","id":576979427,"lat":32.0610063,"lon":34.7665146,"tags":{"name":"מוזיאון נחום גוטמן","name:en":"Nachum Gutman Museum","name:he":"מוזיאון נחום גוטמן","tourism":"museum","wikidata":"Q7215906"}},{"type":"node","id":735827234,"lat":32.0593321,"lon":34.7586982,"tags":{"name":"מוזיאון האצ\"ל בתש\"ח","name:af":"എസെൽ മ്യൂസിയം","name:en":"Etzel Museum","name:he":"מוזיאון האצ\"ל בתש\"ח","tourism":"museum","wikidata":"Q11787097","wikipedia":"he:מוזיאון האצ\"ל בתש\"ח","wikipedia:he":"מוזיאון האצ\"ל בתש\"ח"}},{"type":"node","id":736951643,"lat":31.9271195,"lon":34.7957062,"tags":{"name":"בית ראשונים","name:en":"Beit Rishonim","name:he":"בית ראשונים","tourism":"museum","wikidata":"Q6635626"}},{"type":"node","id":736951672,"lat":31.924284,"lon":34.795791,"tags":{"name":"הבית המשותף","name:en":"Ha'Bait Ha'Meshutaf","name:he":"הבית המשותף","tourism":"museum"}},{"type":"node","id":769268647,"lat":32.0734503,"lon":34.7709991,"tags":{"fixme":"name, name:he mismatch. Flagged by SafwatHalaby_bot-nameCopy","name":"בית העיר תל אביב-יפו","name:en":"Old Municipality House","name:he":"בית העיריה הישן","tourism":"museum","wikidata":"Q6950310"}},{"type":"node","id":1034196934,"lat":32.0772067,"lon":34.8213228,"tags":{"name":"המשכן לאמנות יהודית על שם דוד לבקובסקי","name:en":"David Labkovsky Center for Jewish Art","name:he":"המשכן לאמנות יהודית על שם דוד לבקובסקי","tourism":"museum"}},{"type":"node","id":1060398920,"lat":31.9973901,"lon":34.7599103,"tags":{"name":"מוזיאון אגד","name:en":"Egged Museum","name:he":"מוזיאון אגד","name:ru":"Автобусный музей","tourism":"museum","wikidata":"Q16130495"}},{"type":"node","id":1081860217,"lat":31.8237624,"lon":34.8925579,"tags":{"fee":"no","name":"בית הרצל","name:en":"Hertzel's House","name:he":"בית הרצל","opening_hours":"Fr 09:00-15:00, Sa 10:00-16:00","tourism":"museum","wheelchair":"yes"}},{"type":"node","id":1127659185,"lat":32.1028912,"lon":34.7994782,"tags":{"name":"המוזיאון הישראלי","name:en":"The Israeli Museum.","name:he":"המוזיאון הישראלי","tourism":"museum"}},{"type":"node","id":1199015083,"lat":32.0546646,"lon":34.7542136,"tags":{"name":"המוזיאון לעתיקות יפו","name:ar":"متحف آثار يافا","name:en":"Jaffa Antiquities Museum","name:he":"המוזיאון לעתיקות יפו","tourism":"museum"}},{"type":"node","id":1256418585,"lat":32.2667279,"lon":34.940696,"tags":{"name":"מוזיאון הטרקטורים","name:en":"Tractor Museum","name:he":"מוזיאון הטרקטורים","tourism":"museum","website":"https://tractor.org.il/","wikidata":"Q97212439"}},{"type":"node","id":1264711367,"lat":32.3091611,"lon":35.1139465,"tags":{"name":"Anabta Municipality","tourism":"museum"}},{"type":"node","id":1268705152,"lat":31.9161467,"lon":34.8097838,"tags":{"alt_name:en":"Ayalon Institute Museum","name":"מוזאון מכון איילון","name:en":"Machon Ayalon Museum","name:he":"מוזאון מכון איילון","tourism":"museum","wikidata":"Q7057323"}},{"type":"node","id":1339853707,"lat":31.8957665,"lon":34.8135415,"tags":{"name":"בית דונדיקוב","name:en":"Dondikov's House","name:he":"בית דונדיקוב","tourism":"museum","wikidata":"Q115868302"}},{"type":"node","id":1698149094,"lat":32.079071,"lon":34.8218753,"tags":{"name":"מוזיאון עירוני לאמנות המזרח","name:en":"Eastern Culture","name:he":"מוזיאון עירוני לאמנות המזרח","tourism":"museum"}},{"type":"node","id":1749068242,"lat":32.104534,"lon":34.7992594,"tags":{"name":"מוזיאון הפלמ\"ח","name:en":"Hapalmach Museum","name:he":"מוזיאון הפלמ\"ח","tourism":"museum","wikidata":"Q2899919","wikipedia":"he:מוזיאון הפלמ\"ח","wikipedia:en":"Palmach Museum","wikipedia:he":"מוזיאון הפלמ\"ח"}},{"type":"node","id":1815915915,"lat":31.8192675,"lon":34.9039142,"tags":{"name":"סטודיו לפיסול","name:he":"סטודיו לפיסול","tourism":"museum"}},{"type":"node","id":1912262153,"lat":32.085465,"lon":34.8724939,"tags":{"name":"מוזיאון פתח תקווה לאמנות","name:he":"מוזיאון פתח תקווה לאמנות","tourism":"museum","wikidata":"Q6607590"}},{"type":"node","id":1942477221,"lat":32.0875648,"lon":34.8832468,"tags":{"name":"בית הדפוס","name:en":"Beit HaDfus","name:he":"בית הדפוס","tourism":"museum"}},{"type":"node","id":2145115350,"lat":32.2698933,"lon":34.8858546,"tags":{"name":"מוזיאון אבן יהודה","name:en":"Even Yehuda Museum","name:he":"מוזיאון אבן יהודה","tourism":"museum","wikidata":"Q20501921"}},{"type":"node","id":2181383606,"lat":32.0870285,"lon":34.8823322,"tags":{"tourism":"museum"}},{"type":"node","id":2195893596,"lat":32.0883352,"lon":34.8731451,"tags":{"tourism":"museum","wikidata":"Q41794688"}},{"type":"node","id":2540948749,"lat":32.1687151,"lon":34.8406604,"tags":{"fee":"no","name":"בית ראשונים","name:en":"Beit Rishonim","name:he":"בית ראשונים","opening_hours":"Su-Th 08:00-13:00","tourism":"museum","wikidata":"Q6660173"}},{"type":"node","id":2592151558,"lat":31.9638726,"lon":34.8072472,"tags":{"name":"המוזיאון לתולדות ראשון לציון","name:en":"Rishon leZion Museum","name:he":"המוזיאון לתולדות ראשון לציון","tourism":"museum","website":"http://www.rishonlezion-museum.org.il/","wikidata":"Q20502065","wikipedia":"he:המוזיאון לתולדות ראשון לציון","wikipedia:he":"המוזיאון לתולדות ראשון לציון"}},{"type":"node","id":2862959841,"lat":32.0565606,"lon":34.7694866,"tags":{"addr:housenumber":"8","addr:street":"שטרן","name":"מוזיאון לח\"י","name:en":"Lechi Museum","name:he":"מוזיאון לח\"י","tourism":"museum","wikidata":"Q6518785"}},{"type":"node","id":3018195572,"lat":32.0204924,"lon":34.7931315,"tags":{"addr:city":"חולון","addr:street":"פרופסור שור","name":"פינת חי","name:he":"פינת חי","tourism":"zoo"}},{"type":"node","id":3280707413,"lat":32.3326619,"lon":34.8526876,"tags":{"addr:housenumber":"3","addr:street":"מקדולנד","email":"museum.netanya@gmail.com","fee":"yes","name":"מוזיאון העיר נתניה","name:en":"Netanya Municipal Museum","name:he":"מוזיאון העיר נתניה","name:ru":"Музей города Нетания","opening_hours":"Su, Tu-Th 10:00-16:00; Mo 12:00-19:00","tourism":"museum","website":"https://gonetanya.com/?p=14888&lang=en"}},{"type":"node","id":3638085126,"lat":32.0628337,"lon":34.7709175,"tags":{"addr:city":"תל אביב-יפו","addr:housenumber":"16","addr:street":"שדרות רוטשילד","name":"היכל העצמאות","name:en":"Independence Hall","name:he":"היכל העצמאות","tourism":"museum","website":"http://www.eng.ihi.org.il","wikidata":"Q7210801"}},{"type":"node","id":3758772522,"lat":31.8542639,"lon":34.8383927,"tags":{"addr:housenumber":"40","addr:postcode":"7680400","addr:street":"רוטשילד","email":"muzeum@mazkeret-batya.muni.il","name":"מוזיאון המושבה ע\"ש ערן שמיר","name:en":"The Eran Shamir Settlement Museum","name:he":"מוזיאון המושבה ע\"ש ערן שמיר","opening_hours":"Su-Th 08:00-13:30; Fr 08:00-12:00","phone":"+972-8-9349525","tourism":"museum","website":"https://mazkeret-batya.muni.il/"}},{"type":"node","id":4427374753,"lat":32.1077673,"lon":35.1619255,"tags":{"name":"גן סיפורי התנ\"ך","name:en":"Garden of Bible Stories","name:he":"גן סיפורי התנ\"ך","opening_hours":"Su-Th 09:00-15:00","tourism":"museum"}},{"type":"node","id":4462624290,"lat":31.9707062,"lon":35.200112,"tags":{"name":"متحف الشعب","name:ar":"متحف الشعب","name:en":"People's Museum","tourism":"museum"}},{"type":"node","id":4464975299,"lat":31.9373514,"lon":35.1697097,"tags":{"name":"مدينة ملاهي سكاي لاند","name:ar":"مدينة ملاهي سكاي لاند","tourism":"theme_park"}},{"type":"node","id":4589543173,"lat":32.0730755,"lon":34.7706503,"tags":{"name":"Bauhaus Tel-Aviv","name:en":"Bauhaus Tel-Aviv","opening_hours":"We 11:00-17:00; Fr 10:00-14:00","tourism":"museum","wikidata":"Q22132004"}},{"type":"node","id":4818134434,"lat":32.0890956,"lon":34.8817979,"tags":{"tourism":"museum"}},{"type":"node","id":5028315574,"lat":31.754565,"lon":34.9954937,"tags":{"name":"מוזיאון הטבע התנ\"כי","name:en":"Biblical Museum of Natural History","name:he":"מוזיאון הטבע התנ\"כי","tourism":"museum","wikidata":"Q19876418"}},{"type":"node","id":5225985522,"lat":32.0631559,"lon":34.7688262,"tags":{"name:en":"Altmans gallery","tourism":"museum"}},{"type":"node","id":5920228481,"lat":32.0632895,"lon":34.7718809,"tags":{"description":"מוזיאון ההגנה, ארכיון ההגנה","name":"בית אליהו גולומב","name:en":"Eliyahu Golomb House","name:he":"בית אליהו גולומב","opening_hours":"Mo-Th, Su 08:00-16:00","tourism":"museum"}},{"type":"node","id":6636859099,"lat":31.8869669,"lon":34.8155206,"tags":{"addr:housenumber":"7","addr:street":"אברבנאל","name":"מרכז מורשת יהדות תימן","name:he":"מרכז מורשת יהדות תימן","opening_hours":"Mo, We, Th, Su 09:00-17:00; Tu 09:00-13:00, 16:00-19:00","phone":"+972733946150","tourism":"museum","website":"https://www.bet-moreshet.co.il/"}},{"type":"node","id":6814604090,"lat":32.0639886,"lon":34.769478,"tags":{"name":"המרכז להכרת תל אביב","name:en":"Tel Aviv Center","name:he":"המרכז להכרת תל אביב","tourism":"museum"}},{"type":"node","id":8901946870,"lat":31.9421922,"lon":35.046189,"tags":{"name":"למען החי","name:he":"למען החי","tourism":"zoo","wheelchair":"limited","zoo":"petting_zoo"}},{"type":"node","id":9138296725,"lat":31.885171,"lon":35.0170246,"tags":{"name":"בית האומנים","name:he":"בית האומנים","tourism":"museum"}},{"type":"node","id":9324888518,"lat":32.3988418,"lon":34.9179884,"tags":{"name":"street view Aquarium","tourism":"aquarium"}},{"type":"node","id":9996951901,"lat":32.0734285,"lon":34.7704616,"tags":{"name":"Liebling house","tourism":"museum"}},{"type":"node","id":10541898351,"lat":31.9514626,"lon":34.778146,"tags":{"tourism":"zoo","zoo":"petting_zoo"}},{"type":"node","id":11429486269,"lat":31.8151024,"lon":34.7756323,"tags":{"name:ru":"Музей истории Гедеры","tourism":"museum"}},{"type":"node","id":12026876569,"lat":32.1802169,"lon":34.9312061,"tags":{"image":"https://upload.wikimedia.org/wikipedia/commons/6/6b/IHM_גן_הפסלים_1.jpeg","image1":"https://upload.wikimedia.org/wikipedia/commons/6/61/IHM_גן_הפסלים_2.jpeg","leisure":"park","museum":"open_air","name":"גן הפסלים","name:he":"גן הפסלים","outdoor":"yes","tourism":"museum"}},{"type":"node","id":12063066379,"lat":32.0712548,"lon":34.7799079,"tags":{"name":"מוזיאון בית יוסף באו","name:en":"Joseph Bau House Museum","tourism":"museum","website":"https://www.josephbau.com/","wikidata":"Q16130084"}},{"type":"node","id":12115361265,"lat":32.0680233,"lon":34.7783095,"tags":{"name":"מרכז אדמונד דה רוטשילד","tourism":"museum","wikidata":"Q28812020"}},{"type":"node","id":13257409833,"lat":32.0532035,"lon":34.7517015,"tags":{"name":"מוזיאון אורי גלר","name:en":"Uri Geller Museum","name:he":"מוזיאון אורי גלר","tourism":"museum"}},{"type":"way","id":35208625,"center":{"lat":32.1065868,"lon":34.8120811},"tags":{"addr:housenumber":"101","addr:street":"שדרות רוקח תל אביב","area":"yes","barrier":"fence","description":"הלונה פארק בתל אביב, פארק השעשועים המוכר ביותר במדינה, משתרע על פני כ-50 דונם של מדשאות רחבות ידיים, עצי תמר ואקליפטוס, דרכי גישה מרוצפות ונוחות ושפע של אטרקציות והרפתקאות. ברחבי הפארק ממוקמים מזנונים שונים, המציעים מגוון ארוחות, חטיפים ומשקאות.","leisure":"park","name":"לונה פארק","name:en":"Luna Park","name:he":"לונה פארק","name:ru":"Луна-парк","opening_hours":"Mo-Th, Su 10:00-21:00; Sa 10:00-21:00","phone":"03-642-7080","tourism":"theme_park","website":"https://www.lunapark.co.il/","wikidata":"Q4519503"}},{"type":"way","id":47126142,"center":{"lat":32.3422404,"lon":34.8606966},"tags":{"addr:housenumber":"17","addr:street":"נחום סוקולוב","building":"yes","fee":"no","name":"בית הבאר","name:en":"Beit HaBeer","name:he":"בית הבאר","opening_hours":"Su-Fr 09:00-14:00","tourism":"museum","website":"https://biltiformali.org.il/","wheelchair":"limited","wikidata":"Q45841952"}},{"type":"way","id":48071619,"center":{"lat":32.1139737,"lon":34.8053582},"tags":{"building":"yes","name":"אנו - מוזיאון העם היהודי","name:en":"Anu - Museum of the Jewish People","name:he":"אנו - מוזיאון העם היהודי","tourism":"museum","wikidata":"Q796764"}},{"type":"way","id":50899662,"center":{"lat":32.0261079,"lon":34.8543147},"tags":{"alt_name:en":"Moreshet Yahadut Bavel","building":"yes","name":"מוזיאון מורשת יהדות בבל","name:en":"Babylon Jewish Heritage Museum","name:he":"מוזיאון מורשת יהדות בבל","tourism":"museum","wikidata":"Q28870049"}},{"type":"way","id":54448786,"center":{"lat":31.911491,"lon":34.8142044},"tags":{"barrier":"fence","landuse":"farmyard","name":"אתר הפרדסאות ע\"ש מינקוב","name:en":"Minkov Orchard Museum","name:he":"אתר הפרדסאות ע\"ש מינקוב","tourism":"museum","wikidata":"Q12404337"}},{"type":"way","id":59429784,"center":{"lat":31.9224593,"lon":34.7965333},"tags":{"name":"נחלת ראובן","name:en":"Nahalat Reuven","name:he":"נחלת ראובן","tourism":"museum"}},{"type":"way","id":80798202,"center":{"lat":31.978744,"lon":34.7443493},"tags":{"addr:city":"ראשון לציון","addr:housenumber":"5","addr:street":"שדרות מינסטר","barrier":"fence","leisure":"park","name":"סופרלנד","name:en":"Superland","name:he":"סופרלנד","tourism":"theme_park","wikidata":"Q6787459"}},{"type":"way","id":81652298,"center":{"lat":32.1033136,"lon":34.79758},"tags":{"building":"yes","building:levels":"3","museum":"history","name":"מוזיאון אלכסנדר לתולדות הדואר והבולאות","name:en":"Alexander Museum of Postal History and Philately","name:he":"מוזיאון אלכסנדר לתולדות הדואר והבולאות","tourism":"museum","wikidata":"Q107062421"}},{"type":"way","id":81652303,"center":{"lat":32.1021036,"lon":34.7959911},"tags":{"alt_name:he":"מוזיאון הארץ","area":"yes","barrier":"fence","name":"מוזיאון ארץ ישראל","name:en":"Eretz Israel Museum","name:he":"מוזיאון ארץ ישראל","phone":"03-6415244","tourism":"museum","website":"https://www.eretzmuseum.org.il/","wikidata":"Q840618"}},{"type":"way","id":89163634,"center":{"lat":32.0465684,"lon":34.8239094},"tags":{"building":"yes","name":"מוזיאון האדם והחי","name:en":"Man and the Living World Museum","name:he":"מוזיאון האדם והחי","tourism":"museum","wikidata":"Q6694349"}},{"type":"way","id":90167443,"center":{"lat":32.1137608,"lon":34.8078802},"tags":{"addr:city":"tel aviv","addr:housenumber":"12","addr:street":"קלאוזנר","building":"yes","fixme":"name, name:he mismatch. Flagged by SafwatHalaby_bot-nameCopy","name":"מוזיאון הטבע ע\"ש שטיינהרדט","name:en":"Steinhardt Museum of Natural History","name:he":"מוזיאון אוספי הטבע","operator":"Tel Aviv University","tourism":"museum","wikidata":"Q29044424"}},{"type":"way","id":91873006,"center":{"lat":32.1014911,"lon":34.8201393},"tags":{"barrier":"fence","leisure":"water_park","name":"מימדיון","name:en":"Meimadyon","name:he":"מימדיון","phone":"+972  03–6422777","tourism":"theme_park","website":"https://www.meymadion.co.il","wikidata":"Q26769281"}},{"type":"way","id":98259532,"center":{"lat":32.1120189,"lon":34.8085793},"tags":{"alt_name":"הגן הזואולוגי אוניברסיטת תל-אביב","alt_name:en":"Tel-Aviv University Zoological Garden","alt_name:he":"הגן הזואולוגי אוניברסיטת תל-אביב","barrier":"fence","landuse":"meadow","name":"הגן למחקר זואולוגי ע\"ש א׳ מאיר סיגלס","name:en":"I. Meier Segals Garden for Zoological Research","name:he":"הגן למחקר זואולוגי ע\"ש א׳ מאיר סיגלס","tourism":"zoo","zoo":"enclosure"}},{"type":"way","id":98603837,"center":{"lat":32.0980955,"lon":34.7970705},"tags":{"barrier":"fence","tourism":"zoo"}},{"type":"way","id":103859183,"center":{"lat":32.0532952,"lon":34.7513555},"tags":{"building":"yes","building:levels":"2","name":"מוזיאון אילנה גור","name:en":"Illana Gur Museum","name:he":"מוזיאון אילנה גור","tourism":"museum","wikidata":"Q12408902"}},{"type":"way","id":107456891,"center":{"lat":32.0034323,"lon":34.798108},"tags":{"area":"yes","name":"מוזיאון הילדים","name:en":"Children's Museum","name:he":"מוזיאון הילדים","tourism":"museum","wikidata":"Q12408908"}},{"type":"way","id":107456899,"center":{"lat":32.002951,"lon":34.7931772},"tags":{"alt_name:en":"Ymit Alpayim","alt_name:he":"ימית אלפיים","leisure":"water_park","name":"ימית 2000","name:en":"Yamit 2000","name:he":"ימית 2000","tourism":"theme_park","website":"https://www.yamitspark.co.il","wikidata":"Q6599549"}},{"type":"way","id":111092622,"center":{"lat":32.3521156,"lon":34.8754789},"tags":{"name":"מוזיאון בית הגדודים","name:en":"Beit HaGdudim Museum","name:he":"מוזיאון בית הגדודים","tourism":"museum","wikidata":"Q12404500"}},{"type":"way","id":140310985,"center":{"lat":32.3517563,"lon":35.0157241},"tags":{"fee":"yes","is_in":"Bahan","leisure":"park","name":"פארק אוטופיה","name:en":"Utopia Park","name:he":"פארק אוטופיה","tourism":"theme_park","website":"https://www.utopiapark.co.il/","wikidata":"Q4345206"}},{"type":"way","id":149528321,"center":{"lat":32.0728816,"lon":34.7749019},"tags":{"building":"yes","building:levels":"3","building:material":"concrete","building:part":"yes","name":"בית ז'בוטינסקי","name:en":"Beit Jabotinsky","name:he":"בית ז'בוטינסקי","tourism":"museum","wikidata":"Q2908869"}},{"type":"way","id":151643650,"center":{"lat":32.0453618,"lon":34.8240069},"tags":{"barrier":"fence","name":"פינת ליטוף","name:en":"Petting Zoo","name:he":"פינת ליטוף","natural":"grassland","opening_hours":"\"decided by the safari\"","tourism":"zoo","zoo":"petting_zoo"}},{"type":"way","id":154716343,"center":{"lat":32.0607015,"lon":34.8168374},"tags":{"addr:city":"גבעתיים","addr:housenumber":"10","addr:street":"כורזין","building":"yes","name":"בית ווהלין","name:en":"Wolyn House","name:he":"בית ווהלין","tourism":"museum"}},{"type":"way","id":164668782,"center":{"lat":32.0944905,"lon":34.8191168},"tags":{"addr:city":"רמת גן","addr:housenumber":"146","addr:postcode":"5257203","addr:street":"אבא הלל סילבר","building":"yes","name":"מוזיאון לאמנות רמת גן","name:en":"Ramat Gan Art Museum","name:he":"מוזיאון לאמנות רמת גן","tourism":"museum"}},{"type":"way","id":171521134,"center":{"lat":32.1619921,"lon":34.8442421},"tags":{"building":"yes","building:levels":"1","name":"מוזיאון הרצליה לאומנות","name:en":"Hertzeliya Arts Museum","name:he":"מוזיאון הרצליה לאומנות","tourism":"museum","wikidata":"Q6604799"}},{"type":"way","id":216265299,"center":{"lat":31.9754522,"lon":34.7898912},"tags":{"addr:city":"ראשון לציון","addr:housenumber":"3","addr:street":"גולדה מאיר","barrier":"fence","name":"גן החיות חי-כיף","name:en":"Chai Kef zoo","name:he":"גן החיות חי-כיף","natural":"wood","tourism":"zoo","website":"https://www.hay-kef.co.il/","wikidata":"Q16132548","wikipedia":"he:חי-כיף","wikipedia:he":"חי-כיף"}},{"type":"way","id":232898381,"center":{"lat":32.0414374,"lon":34.8041829},"tags":{"barrier":"fence","fixme":"not a real zoo","name":"פינת חי","name:he":"פינת חי","tourism":"zoo","zoo":"petting_zoo"}},{"type":"way","id":236735359,"center":{"lat":31.7989774,"lon":34.6403614},"tags":{"building":"yes","name":"מוזיאון אשדוד קורין ממן","name:en":"Ashdod's museam Korin Maman","name:he":"מוזיאון אשדוד קורין ממן","tourism":"museum","wikidata":"Q23894294"}},{"type":"way","id":236831964,"center":{"lat":32.0206538,"lon":34.7561005},"tags":{"addr:housenumber":"6","addr:street":"סטרומה","building":"yes","name":"מוזיאון בת ים לאומנות עכשווית ע\"ש דוד בן ארי","name:en":"Contemporary art museum","name:he":"מוזיאון בת ים לאומנות עכשווית ע\"ש דוד בן ארי","tourism":"museum","wikidata":"Q6575765","wikipedia":"he:מוזיאון בת-ים לאמנות עכשווית","wikipedia:he":"מוזיאון בת-ים לאמנות עכשווית"}},{"type":"way","id":253262023,"center":{"lat":31.9639434,"lon":34.8047813},"tags":{"building":"yes","name":"בית הבאר","name:en":"Well house","name:he":"בית הבאר","tourism":"museum"}},{"type":"way","id":253399356,"center":{"lat":31.9680701,"lon":34.7822347},"tags":{"addr:city":"ראשון לציון","addr:housenumber":"1","addr:street":"מיש\"ר","building":"yes","name":"מוזיאון יעקב אגם לאמנות","name:en":"Yaacov Agam Museum of Art","name:he":"מוזיאון יעקב אגם לאמנות","opening_hours":"Mo-We 10:00-14:30; Th 16:00-20:00; Fr-Sa 10:00-14:30","tourism":"museum"}},{"type":"way","id":264221406,"center":{"lat":32.1619281,"lon":34.9028397},"tags":{"addr:housenumber":"6","addr:street":"סוקולוב","building":"yes","fee":"no","name":"הצריף הראשון","name:he":"הצריף הראשון","tourism":"museum","wikidata":"Q6799052","wikipedia:he":"הצריף הראשון (הוד השרון)"}},{"type":"way","id":292061151,"center":{"lat":31.8384112,"lon":34.9796222},"tags":{"alt_name":"Armored Corps Museum","fee":"yes","name":"יד לשריון","name:en":"Yad La'Shiryon","name:he":"יד לשריון","tourism":"museum","website":"https://yadlashiryon.com/"}},{"type":"way","id":322205320,"center":{"lat":32.0204283,"lon":34.7702857},"tags":{"addr:city":"חולון","addr:housenumber":"26","addr:postcode":"5832337","addr:street":"לאון בלום","building":"yes","building:levels":"1","name":"המוזיאון והארכיון לתולדות חולון","name:en":"Musuem of the History of Holon","name:he":"המוזיאון והארכיון לתולדות חולון","tourism":"museum","website":"https://holonet.co.il/museum","wheelchair":"yes","wikidata":"Q6556878"}},{"type":"way","id":322206005,"center":{"lat":32.0074389,"lon":34.785304},"tags":{"addr:city":"חולון","addr:housenumber":"53","addr:street":"דוד אלעזר","building":"yes","building:levels":"2","name":"מוזיאון חוסמסה יד ל\"הגנה\"","name:en":"Hosmasa Museum","name:he":"מוזיאון חוסמסה יד ל\"הגנה\"","phone":"+972-3-5050425","tourism":"museum","website":"https://holonet.co.il/?CategoryID=1048&ArticleID=5445","wikidata":"Q6989818","wikipedia":"he:חוסמסה","wikipedia:he":"חוסמסה"}},{"type":"way","id":323231170,"center":{"lat":31.9635573,"lon":35.1826891},"tags":{"addr:city":"Birzeit","ele":"770","layer":"-1","name":"The Palestinian Museum","operator":"The Welfare Association","phone":"+97022974797","tourism":"museum","website":"https://www.palmuseum.org/","wheelchair":"yes","wikidata":"Q18211128","wikipedia":"en:The Palestinian Museum","wikipedia:en":"The Palestinian Museum"}},{"type":"way","id":346311283,"center":{"lat":32.1951732,"lon":34.9713388},"tags":{"tourism":"zoo"}},{"type":"way","id":360614253,"center":{"lat":32.0304015,"lon":34.8204123},"tags":{"name":"מרכז מבקרים - חיריה","name:en":"Hiria visitor center","name:he":"מרכז מבקרים - חיריה","tourism":"museum"}},{"type":"way","id":366184953,"center":{"lat":32.0353379,"lon":34.895344},"tags":{"building":"yes","name":"מרכז מורשת יהדות טורקיה","name:en":"Turkish Jewish Heritage Center","name:he":"מרכז מורשת יהדות טורקיה","name:tr":"Türk Musevi Miras Merkezi","tourism":"museum","wikidata":"Q6935040"}},{"type":"way","id":367966336,"center":{"lat":32.029358,"lon":34.84526},"tags":{"building":"yes","name":"מוזיאון מורשת יהדות לוב","name:he":"מוזיאון מורשת יהדות לוב","tourism":"museum","wikidata":"Q6619233"}},{"type":"way","id":383063974,"center":{"lat":32.1466687,"lon":34.8431306},"tags":{"addr:city":"רמת השרון","addr:housenumber":"12","addr:street":"הפלמ\"ח","building":"yes","name":"מוזיאון גיאולוגי","name:en":"Geological museum","name:he":"מוזיאון גיאולוגי","opening_hours":"Su-Th 08:30-13:00; Mo 16:00-1800","phone":"+972 3 5497185","tourism":"museum","wikidata":"Q6586200"}},{"type":"way","id":398890743,"center":{"lat":31.8982861,"lon":34.9003226},"tags":{"tourism":"zoo"}},{"type":"way","id":414442530,"center":{"lat":31.9431751,"lon":34.9333649},"tags":{"charge":"54 ILS","contact:facebook":"https://www.facebook.com/IsraeliPrimateSanctuaryFoundation/","email":"monkeypk@netvision.net.il","fee":"yes","name":"מקלט הקופים","name:en":"Israeli Primate Sanctuary Foundation","name:he":"מקלט הקופים","old_name":"פארק הקופים","old_name:en":"Monkey Zoo","old_name:he":"פארק הקופים","phone":"+972-8-9285888","tourism":"zoo","website":"https://www.ipsf.org.il/","wikidata":"Q6744575","wikipedia":"he:מקלט הקופים הישראלי","wikipedia:he":"מקלט הקופים הישראלי"}},{"type":"way","id":414992990,"center":{"lat":32.0872732,"lon":34.8739743},"tags":{"landuse":"forest","name":"גן החי בפתח תקווה","name:en":"Gan Hai in Petah Tikva","name:he":"גן החי בפתח תקווה","tourism":"zoo","wikidata":"Q38882839"}},{"type":"way","id":418128843,"center":{"lat":31.9513567,"lon":34.8869208},"tags":{"building":"demolished","tourism":"museum"}},{"type":"way","id":422346066,"center":{"lat":31.9341951,"lon":34.7038554},"tags":{"building":"yes","name":"בית מרים","name:ar":"بيت مريم","name:en":"Bait Miriam","name:he":"בית מרים","operator":"kibbutz palmahim","tourism":"museum","wikidata":"Q12408905"}},{"type":"way","id":477174564,"center":{"lat":32.397477,"lon":34.9324699},"tags":{"building":"yes","name":"Beit Theresienstadt","name:en":"Beit Theresienstadt","name:he":"בית טרזין","tourism":"museum","wikidata":"Q7186623"}},{"type":"way","id":487974632,"center":{"lat":32.1807612,"lon":34.9256137},"tags":{"fee":"yes","name":"פינת חי","name:en":"Petting Zoo","name:he":"פינת חי","tourism":"zoo"}},{"type":"way","id":497837041,"center":{"lat":31.9345152,"lon":34.800208},"tags":{"name":"חי פארק נס ציונה","name:he":"חי פארק נס ציונה","tourism":"zoo"}},{"type":"way","id":559058331,"center":{"lat":31.9103251,"lon":34.81288},"tags":{"barrier":"fence","museum":"open_air","name":"גן המדע ע\"ש קלור","name:en":"Clore Garden of Science","name:he":"גן המדע ע\"ש קלור","tourism":"museum","website":"https://davidson.org.il/gan-hamada/","wikidata":"Q6735767"}},{"type":"way","id":582918318,"center":{"lat":32.1876707,"lon":34.8519098},"tags":{"alt_name:he":"פינת החי פארק רעננה","charge":"15 ILS","fee":"yes","name":"פינת החי","name:en":"Petting Zoo","name:he":"פינת החי","opening_hours":"Mo-Su 10:00-13:00,Mo-Su 15:00-18:00","tourism":"zoo","website":"https://www.raanana.muni.il/ParkRaanana/pages/thepettingzoo.aspx","wheelchair":"yes"}},{"type":"way","id":694031923,"center":{"lat":32.2144238,"lon":34.82048},"tags":{"addr:city":"שפיים","description":"פארק עם בריכות ומגלשות מים","description:he":"פארק עם בריכות ומגלשות מים","leisure":"water_park","name":"פארק המים שפיים","name:en":"Shefayim Water Park","name:he":"פארק המים שפיים","operator":"קיבוץ שפיים","phone":"09-9595756","tourism":"theme_park","website":"https://www.waterpark.co.il/","wheelchair":"yes","wikidata":"Q111008659"}},{"type":"way","id":861124596,"center":{"lat":32.0109161,"lon":34.7776111},"tags":{"addr:city":"חולון","addr:street":"פנחס אילון","building":"yes","name":"מוזאון הישראלי לעיצוב חולון","name:en":"Design Museum Holon","name:he":"מוזאון הישראלי לעיצוב חולון","tourism":"museum","wikidata":"Q2297982"}},{"type":"way","id":911533689,"center":{"lat":32.1957371,"lon":34.9491184},"tags":{"addr:city":"ניר אליהו","tourism":"zoo","zoo":"petting_zoo"}},{"type":"way","id":914093784,"center":{"lat":31.9069097,"lon":35.0057016},"tags":{"building":"yes","museum":"history","name":"מוזיאון מורשת החשמונאים","name:he":"מוזיאון מורשת החשמונאים","tourism":"museum","wikidata":"Q115089759"}},{"type":"way","id":925245121,"center":{"lat":32.3217385,"lon":34.9106933},"tags":{"building":"yes","museum":"history","name":"הפיגוע בצומת בית ליד","name:he":"הפיגוע בצומת בית ליד","tourism":"museum","wikidata":"Q4881454"}},{"type":"way","id":944365024,"center":{"lat":32.2512811,"lon":34.9187742},"tags":{"addr:city":"תל מונד","addr:housenumber":"44","addr:street":"הדקל","building":"yes","name":"בית הלורד","name:en":"Lord's house","name:he":"בית הלורד","tourism":"museum","wikidata":"Q20502381"}},{"type":"way","id":1003998576,"center":{"lat":32.0456676,"lon":34.8238614},"tags":{"area":"yes","drive_through":"yes","name":"הספארי ברמת גן","name:en":"Ramat Gan Safari","name:he":"הספארי ברמת גן","opening_hours":"Jan-Feb: Su-Th 09:00-16:30; Jan-Feb: Fr 09:00-16:00; Jan-Feb: Sa 08:30-16:30","phone":"03-6305328/7/6","tourism":"zoo","website":"https://www.safari.co.il/","wikidata":"Q2343219","wikipedia":"en:Ramat Gan Safari","wikipedia:en":"Ramat Gan Safari","zoo":"safari_park"}},{"type":"way","id":1010946946,"center":{"lat":32.4006388,"lon":34.924364},"tags":{"building":"yes","description":"מוזיאון האופניים של אלון וולף","image":"https://upload.wikimedia.org/wikipedia/commons/e/e7/IHM_מוזיאון_האופניים_של_אלון_וולף.jpeg","name":"מוזיאון האופניים של אלון וולף","name:he":"מוזיאון האופניים של אלון וולף","operator":"אלון וולף","tourism":"museum","website":"https://bikemu.com/"}},{"type":"way","id":1011987739,"center":{"lat":31.9558133,"lon":34.9034126},"tags":{"building":"yes","museum":"history","name":"Lod Mosaic Center","operator":"Lod municipality","operator:type":"public","tourism":"museum"}},{"type":"way","id":1019383351,"center":{"lat":32.0738173,"lon":34.7793272},"tags":{"alt_name:en":"Helena Rubinstein Pavillion","area":"yes","building":"yes","name":"ביתן הלנה רובינשטיין","name:en":"Helena Rubinstein Pavillon","name:he":"ביתן הלנה רובינשטיין","tourism":"museum"}},{"type":"way","id":1078713848,"center":{"lat":31.8108908,"lon":35.0888289},"tags":{"addr:city":"יד השמונה","addr:postcode":"90895","area":"yes","charge":"18 ILS","description":"הגן התנכי משתרע על פני שטח טבעי נרחב ומשלב מגוון שחזורים ארכאולוגיים אותנטיים מתקופות המקרא, בית שני, המשנה והתלמוד.","museum":"open_air","name":"הגן התנכי","name:en":"Biblical Garden","name:fi":"Raamatullinen puutarha","name:he":"הגן התנכי","opening_hours":"Su-Th 08:00-17:00; Fr 08:00-15:00","outdoor":"yes","start_date":"2000","tourism":"museum"}},{"type":"way","id":1081688634,"center":{"lat":32.0256539,"lon":34.8037745},"tags":{"building":"yes","museum":"history","name":"מוזיאון אזור","name:en":"Azor Museum","name:he":"מוזיאון אזור","tourism":"museum","wikidata":"Q24248411"}},{"type":"way","id":1131035955,"center":{"lat":31.9513285,"lon":34.7780324},"tags":{"email":"Royboypark2021@gmail.com","name":"רוי בוי פארק","name:he":"רוי בוי פארק","note":"גודל וצורת המתחם לא ידועים, נוצא מתוך שתי הערות","opening_hours":"Sa 10:00-14:00","tourism":"theme_park","website":"https://royboy.co.il"}},{"type":"way","id":1175749359,"center":{"lat":31.937952,"lon":35.1701258},"tags":{"tourism":"theme_park"}},{"type":"way","id":1183324277,"center":{"lat":31.7913267,"lon":34.8021761},"tags":{"landuse":"farmyard","name":"החווה של חוה","name:en":"Hava Farm","name:he":"החווה של חוה","tourism":"zoo","zoo":"petting_zoo"}},{"type":"way","id":1185613183,"center":{"lat":32.0961696,"lon":34.8183888},"tags":{"addr:city":"רמת גן","addr:housenumber":"125","addr:street":"רוקח","building":"yes","building:levels":"1","name":"בית נתן רפפורט","name:en":"Beit Natan Rappaport","name:he":"בית נתן רפפורט","roof:shape":"gabled_height_moved","tourism":"museum","website":"https://www.ramat-gan.muni.il/going_out/museums/beit_rappaport/"}},{"type":"way","id":1187559180,"center":{"lat":31.825771,"lon":34.6830529},"tags":{"building":"yes","fee":"yes","museum":"history","name":"בית העדות","name:en":"Testimony House","name:he":"בית העדות","opening_hours":"8:00-16:00 א-ה","tourism":"museum","wikidata":"Q16338744"}},{"type":"way","id":1191468533,"center":{"lat":31.9505285,"lon":35.1340984},"tags":{"tourism":"zoo","zoo":"petting_zoo"}},{"type":"way","id":1193841392,"center":{"lat":31.9358371,"lon":35.0361939},"tags":{"addr:city":"מודיעין עילית","addr:street":"מסילת ישרים","tourism":"theme_park"}},{"type":"way","id":1297597745,"center":{"lat":32.1817737,"lon":34.9369287},"tags":{"description":"הגן הארכיאולוגי מציג פרקים מחיי היומיום בכפר-סבא הקדומה. נחשפו שרידי פעילות בתחומי החקלאות והמלאכה של אנשי היישוב הקדום. רוב שטחו של היישוב הקדום לא נחפר. על חלק גדול ממנו הוקמו מבני הציבור והבתים של שכונת גבעת אשכול ושכונות סמוכות.","description:he":"הגן הארכיאולוגי מציג פרקים מחיי היומיום בכפר-סבא הקדומה. נחשפו שרידי פעילות בתחומי החקלאות והמלאכה של אנשי היישוב הקדום. רוב שטחו של היישוב הקדום לא נחפר. על חלק גדול ממנו הוקמו מבני הציבור והבתים של שכונת גבעת אשכול ושכונות סמוכות.","fence":"yes","image":"https://upload.wikimedia.org/wikipedia/commons/3/37/IHM_הגן_הארכיאולוגי.jpeg","museum":"archaeological","name":"הגן הארכיאולוגי","name:en":"Archaeological garden","name:he":"הגן הארכיאולוגי","outdoor":"yes","tourism":"museum","website":"https://kfar-saba-museum.org/sites/archaeology_garden/"}},{"type":"way","id":1377569092,"center":{"lat":31.9281846,"lon":34.8801967},"tags":{"barrier":"fence","name":"מוזיאון המשאיות והתובלה","name:en":"Trucks and Transport Museum","name:ru":"Музей грузовиков Рамла.","tourism":"museum","wikidata":"Q25493914"}},{"type":"way","id":1465126973,"center":{"lat":31.7743507,"lon":34.7205487},"tags":{"tourism":"zoo","zoo":"petting_zoo"}},{"type":"relation","id":7992885,"center":{"lat":31.9065184,"lon":34.8185864},"tags":{"alt_name:en":"Chaim Weizmann's Museum","alt_name:he":"בית חיים ויצמן","building":"yes","building:levels":"1","name":"בית ויצמן","name:en":"Weizmann House","name:he":"בית ויצמן","tourism":"museum","type":"multipolygon","wikidata":"Q2903120"}},{"type":"relation","id":15690216,"center":{"lat":32.0775311,"lon":34.7863257},"tags":{"addr:city":"תל אביב-יפו","addr:housenumber":"27","addr:street":"שאול המלך","building":"yes","name":"מוזיאון תל אביב לאומנות","name:en":"Tel Aviv Museum of Art","name:he":"מוזיאון תל אביב לאומנות","name:ru":"Музей Искусств Тель Авива","tourism":"museum","type":"multipolygon","website":"https://www.tamuseum.org.il/","wheelchair":"yes","wikidata":"Q1267958"}},{"type":"node","id":246270624,"lat":32.1466576,"lon":34.8047077,"tags":{"amenity":"cinema","name":"סינמה סיטי גלילות","name:en":"Cinema City Glilot","name:he":"סינמה סיטי גלילות","operator":"סינמה סיטי","operator:en":"Cinema City","operator:he":"סינמה סיטי"}},{"type":"node","id":270161934,"lat":32.1840291,"lon":34.8531172,"tags":{"amenity":"cinema","name":"סינמה פארק רעננה","name:en":"Cinema Park Raanana","name:he":"סינמה פארק רעננה","operator":"סינמה סיטי","operator:en":"Cinema City","website":"https://cinema-city.co.il/"}},{"type":"node","id":316596283,"lat":32.163711,"lon":34.7970324,"tags":{"amenity":"cinema","name":"רב חן ארנה","name:en":"Rav Hen - Arena","name:he":"רב חן ארנה"}},{"type":"node","id":316596285,"lat":32.1715153,"lon":34.8004458,"tags":{"amenity":"cinema","name":"קולנוע לב דניאל","name:en":"Lev Daniel","name:he":"קולנוע לב דניאל"}},{"type":"node","id":405816983,"lat":32.2809448,"lon":34.8624163,"tags":{"amenity":"cinema"}},{"type":"node","id":432260889,"lat":32.0474989,"lon":35.1744755,"tags":{"amenity":"hospital","name":"Mazar' Al Nubani Clinic","name:ar":"عيادة مزارع النوباني"}},{"type":"node","id":432260897,"lat":32.0475205,"lon":35.1745337,"tags":{"amenity":"hospital","name":"Adnan Hospital","name:ar":"مستشفى عدنان"}},{"type":"node","id":432261029,"lat":31.9245108,"lon":35.0979482,"tags":{"amenity":"library","name":"Kufur Ne'mah Library","name:ar":"مكتبة كفر نعمة"}},{"type":"node","id":432261052,"lat":32.0341695,"lon":35.1048826,"tags":{"amenity":"hospital","name":"Bani Zaid Helth Center","name:ar":"مركز صحي بني زيد"}},{"type":"node","id":432261332,"lat":31.9457119,"lon":35.0231711,"tags":{"amenity":"hospital","name":"Child Clinic","name:ar":"عيادة اطفال"}},{"type":"node","id":432262376,"lat":31.9904072,"lon":35.1582816,"tags":{"amenity":"hospital","name":"Health Clinic","name:ar":"عيادة صحية"}},{"type":"node","id":432263427,"lat":31.9283286,"lon":35.0928778,"tags":{"amenity":"hospital","name":"Kufur Nemah Health Center","name:ar":"مركز صحي كفر نعمة"}},{"type":"node","id":432264808,"lat":31.9070237,"lon":35.0584906,"tags":{"amenity":"hospital","name":"Saffa Health Center","name:ar":"مركز صحي صفا"}},{"type":"node","id":432265464,"lat":31.9681631,"lon":35.1071241,"tags":{"amenity":"hospital","name":"Health Center","name:ar":"مركز صحي"}},{"type":"node","id":432266195,"lat":31.9083794,"lon":35.1429808,"tags":{"amenity":"hospital","healthcare":"hospital","name":"Ein Arik clinic"}},{"type":"node","id":432266344,"lat":31.9490793,"lon":35.0439359,"tags":{"amenity":"hospital","name":"Health Center","name:ar":"مركز صحي"}},{"type":"node","id":432266717,"lat":31.9665844,"lon":35.0990514,"tags":{"amenity":"hospital","name":"UNRWA Health Center","name:ar":"مركز صحي الانوروا"}},{"type":"node","id":432266806,"lat":31.8692399,"lon":35.0639839,"tags":{"amenity":"hospital","name":"Bait Liqya Health Center","name:ar":"مركز صحي بيت لقيا"}},{"type":"node","id":432266881,"lat":31.9351974,"lon":35.0059505,"tags":{"amenity":"hospital","name":"Medya Health Clinic","name:ar":"مركز صحي ميديا","name:en":"Medya Health Clinic"}},{"type":"node","id":432269481,"lat":32.0278295,"lon":35.0187079,"tags":{"amenity":"hospital","name":"Rantees Clinic","name:ar":"عيادة رنتيس"}},{"type":"node","id":432271096,"lat":31.9158205,"lon":35.1181106,"tags":{"amenity":"hospital","name":"Der Bazi Clinic"}},{"type":"node","id":432273925,"lat":31.9982406,"lon":35.0644167,"tags":{"amenity":"hospital","name":"Dait Abumesh'al Health Center","name:ar":"مركز صحي دير ابو مشعل"}},{"type":"node","id":432275312,"lat":31.9294309,"lon":35.0768526,"tags":{"amenity":"hospital","name":"Ministry of Health clinic"}},{"type":"node","id":432276066,"lat":31.8676028,"lon":35.0671,"tags":{"amenity":"hospital","name":"Health Center","name:ar":"مركز صحي"}},{"type":"node","id":432276134,"lat":31.966268,"lon":35.0979614,"tags":{"amenity":"hospital","name":"Dair Amaar Health Center","name:ar":"مركز صحي دير عمار"}},{"type":"node","id":432276390,"lat":32.0538978,"lon":35.1280867,"tags":{"amenity":"hospital","name":"Qarawat Bani Zied clinic","name:ar":"عيادة قراوة بني زيد"}},{"type":"node","id":432277514,"lat":31.952903,"lon":35.1513189,"tags":{"amenity":"hospital","name":"Health Center"}},{"type":"node","id":432278847,"lat":32.0324055,"lon":35.1982119,"tags":{"amenity":"hospital","name":"Alenayah Health Center","name:ar":"مركز صحي العناية"}},{"type":"node","id":432280836,"lat":32.0482167,"lon":35.1196421,"tags":{"amenity":"hospital","name":"Health Center","name:ar":"مركز صحي"}},{"type":"node","id":432280945,"lat":31.9010999,"lon":35.1744305,"tags":{"amenity":"library","name":"Medo library","name:ar":"مكتبة ميدو","name:en":"Medo library"}},{"type":"node","id":432282795,"lat":31.9057448,"lon":35.1412479,"tags":{"amenity":"hospital","dispensing":"no","healthcare":"hospital","name":"Ein Arik health center","name:en":"Ein Arik health center"}},{"type":"node","id":432283425,"lat":31.9794256,"lon":35.0118034,"tags":{"amenity":"hospital","name":"Qebia Health Center","name:ar":"مركز صحي قبية"}},{"type":"node","id":432285864,"lat":32.0016521,"lon":35.1130918,"tags":{"amenity":"hospital","name":"Dair Netham Health Center","name:ar":"مركز صحي دير نظام","name:en":"Dair Netham Health Center"}},{"type":"node","id":432286645,"lat":32.0342328,"lon":35.1481932,"tags":{"amenity":"hospital","name":"Health Clinic","name:ar":"عيادة صحة"}},{"type":"node","id":432286878,"lat":32.0338561,"lon":35.0377918,"tags":{"amenity":"hospital","name":"Aleban clinic"}},{"type":"node","id":432294909,"lat":32.0412874,"lon":35.178794,"tags":{"amenity":"hospital","name":"Masqat Health Center","name:ar":"مركز صحي مسقط"}},{"type":"node","id":432295950,"lat":31.8870431,"lon":35.0436793,"tags":{"amenity":"hospital","name":"Bait Siera Health Center","name:ar":"مركز صحي بيت سيرا"}},{"type":"node","id":432296926,"lat":31.9447401,"lon":35.0206598,"tags":{"amenity":"hospital","name":"Health Ministry Clinic","name:ar":"عيادة وزارة الصحة","name:en":"Health Ministry Clinic"}},{"type":"node","id":432297506,"lat":32.032341,"lon":35.199705,"tags":{"amenity":"hospital","name":"Abwein Health Center","name:ar":"مركز صحي عبوين"}},{"type":"node","id":432314424,"lat":32.1779924,"lon":35.0552471,"tags":{"amenity":"library","name":"'Azzun"}},{"type":"node","id":432326844,"lat":32.1766886,"lon":35.0586659,"tags":{"amenity":"library","name":"'Azzun"}},{"type":"node","id":432328504,"lat":32.1653819,"lon":34.9768081,"tags":{"amenity":"hospital","name":"Health Center","name:en":"Health Center"}},{"type":"node","id":432334695,"lat":32.1932264,"lon":34.9800403,"tags":{"amenity":"hospital","name":"Dr.Darwish Government Hospital","name:ar":"مستشفى درويش نزال الحكومي","name:en":"Dr.Darwish Government Hospital"}},{"type":"node","id":432334726,"lat":32.1917763,"lon":34.9688888,"tags":{"amenity":"hospital","highway":"emergency_access_point","name":"دروش نزال","name:ar":"دروش نزال","name:en":"Darwish Nazal"}},{"type":"node","id":432334844,"lat":32.1923184,"lon":34.9728362,"tags":{"amenity":"hospital","name":"Military Medical Services","name:ar":"الخدمات الطبية العسكرية","name:en":"Military Medical Services"}},{"type":"node","id":432351313,"lat":32.0848164,"lon":35.1820692,"tags":{"amenity":"hospital","healthcare":"hospital","healthcare:speciality":"clinic","name":"First Medical Aid Hospital","name:ar":"مديرية صحة محافظة سلفيت"}},{"type":"node","id":432352913,"lat":32.0818534,"lon":35.1850107,"tags":{"amenity":"hospital","name":"Medical Clinics","name:ar":"مركز دار المسنين"}},{"type":"node","id":432360380,"lat":32.3138682,"lon":35.0280048,"tags":{"addr:housename":"دوار ثابت ثابت | بجانب محطة القاروط","addr:street":"King Husein","amenity":"hospital","healthcare":"hospital","name":"تفاحة للبصريات","note":"دليل طولكرم الطبي الالكتروني | طلاب البرمجيات وقواعد البيانات","website":"https://www.facebook.com/daleltulkarm"}},{"type":"node","id":432370836,"lat":32.313649,"lon":35.0278513,"tags":{"amenity":"hospital","healthcare":"hospital","name":"صيدلية الشعب"}},{"type":"node","id":432371458,"lat":32.3100363,"lon":35.113624,"tags":{"amenity":"hospital","name":"San John Hopspital","name:ar":"مستشفى سان جون للعيون"}},{"type":"node","id":432397097,"lat":32.3146187,"lon":35.0300511,"tags":{"addr:housename":"مستشفى ثابت ثابت","amenity":"hospital","designation":"دليل طولكرم الطبي","emergency":"yes","healthcare":"hospital","name":"مستشفى ثابت ثابت","name:ar":"مستشفى ثابت ثابت","note":"تمت الاضافة بواسطة دليل طولكرم الطبي الالكتروني","source":"شارع المستشفى","wikidata":"Q55965634"}},{"type":"node","id":454137639,"lat":32.0861009,"lon":34.7718189,"tags":{"amenity":"library"}},{"type":"node","id":467687529,"lat":32.3501829,"lon":34.8707846,"tags":{"alt_name:en":"Clalit","amenity":"hospital","emergency":"no","name":"קופת חולים כללית","name:en":"Kupat Holim Clalit","name:he":"קופת חולים כללית"}},{"type":"node","id":560436484,"lat":32.1468193,"lon":34.8369509,"tags":{"amenity":"cinema","name":"כוכב","name:en":"Kochav","name:he":"כוכב"}},{"type":"node","id":563127762,"lat":32.1465043,"lon":34.8410625,"tags":{"amenity":"library","name":"ספריה עירונית","name:en":"Municipal Library","name:he":"ספריה עירונית"}},{"type":"node","id":738895094,"lat":31.9228785,"lon":34.7849464,"tags":{"amenity":"hospital","emergency":"no","healthcare":"hospital","name":"בית פנחס","name:en":"Beit Pinhas","name:he":"בית פנחס"}},{"type":"node","id":739098458,"lat":32.1913727,"lon":34.8215031,"tags":{"amenity":"cinema"}},{"type":"node","id":838174267,"lat":31.9004962,"lon":34.7968156,"tags":{"amenity":"hospital","healthcare":"hospital","name":"דרך חיים - מרכז החלמה לנפגעי סמים ואלכוהול","name:en":"Derekh Ha'im - Drugs and Alcohol Addicts Rehabilitation Center","name:he":"דרך חיים - מרכז החלמה לנפגעי סמים ואלכוהול","wheelchair":"no"}},{"type":"node","id":881082864,"lat":31.8931357,"lon":34.8066457,"tags":{"amenity":"cinema","level":"-1","name":"גלובוס מקס","name:en":"Globus Max","name:he":"גלובוס מקס"}},{"type":"node","id":962966928,"lat":32.0780861,"lon":34.7734776,"tags":{"amenity":"cinema","internet_access":"wlan","name":"רב חן דיזינגוף","name:en":"Rav Hen Dizengoff","name:he":"רב חן דיזינגוף"}},{"type":"node","id":968282622,"lat":31.8935934,"lon":34.8128122,"tags":{"amenity":"library","check_date":"2025-12-15","name":"ספריית יוסף מאירהוף","name:en":"The Joseph Meyerhoff Library","name:he":"ספריית יוסף מאירהוף"}},{"type":"node","id":1033123936,"lat":32.0994719,"lon":34.827084,"tags":{"amenity":"cinema","brand":"Yes Planet","level":"2","name":"Yes Planet","name:en":"Yes Planet","operator":"Yes Planet","website":"https://www.yesplanet.co.il/"}},{"type":"node","id":1126009577,"lat":32.1158049,"lon":34.796942,"tags":{"amenity":"library"}},{"type":"node","id":1131360231,"lat":32.1432916,"lon":34.7930091,"tags":{"amenity":"cinema","name":"לב מנדרין","name:en":"Lev Mandarin","name:he":"לב מנדרין","operator":"לב","operator:en":"Lev","operator:he":"לב","website":"https://www.lev.co.il/"}},{"type":"node","id":1213086468,"lat":32.0384014,"lon":34.7585299,"tags":{"amenity":"cinema"}},{"type":"node","id":1234353801,"lat":32.1543526,"lon":34.8922376,"tags":{"amenity":"library","name":"ספריה עירונית","name:en":"Municipal library","name:he":"ספריה עירונית"}},{"type":"node","id":1308842251,"lat":32.0693987,"lon":34.7945517,"tags":{"amenity":"hospital","healthcare":"hospital","name":"אסותא","name:ar":"اسوتا","name:en":"Assuta","name:he":"אסותא"}},{"type":"node","id":1386295709,"lat":32.0924064,"lon":34.8019618,"tags":{"amenity":"library","name":"ספריית חרוזים","name:he":"ספריית חרוזים"}},{"type":"node","id":1386760368,"lat":32.094178,"lon":34.8141273,"tags":{"amenity":"library","name":"ספרייה עירונית","name:he":"ספרייה עירונית"}},{"type":"node","id":1503576584,"lat":32.056878,"lon":34.8751136,"tags":{"amenity":"library"}},{"type":"node","id":1636279586,"lat":31.9837804,"lon":34.7711884,"tags":{"amenity":"cinema","name":"סינמה סיטי ראשון לציון","name:en":"Cinema City Rishon Leziyyon","name:he":"סינמה סיטי ראשון לציון","operator":"סינמה סיטי","operator:en":"Cinema City","website":"https://cinema-city.co.il/","wheelchair":"yes"}},{"type":"node","id":1656108491,"lat":32.0652588,"lon":34.7879777,"tags":{"addr:city":"Tel Aviv","addr:country":"IL","addr:housenumber":"29","addr:street":"Yitshak Sadeh","amenity":"library","name":"סלון מזל","name:en":"Salon Mazal","name:he":"סלון מזל","website":"http://www.salon-mazal.org/","wikidata":"Q7405673","wikipedia":"he:סלון מזל","wikipedia:he":"סלון מזל"}},{"type":"node","id":1683224091,"lat":32.0150262,"lon":34.7561933,"tags":{"addr:housenumber":"92","addr:street":"יוספטל","amenity":"cinema","contact:phone":"+97235531077","contact:website":"http://www.rav-hen.co.il/","name":"רב-חן בת-ים","name:en":"Rav-Hen Bat-Yam","name:he":"רב-חן בת-ים","operator":"רב חן","operator:en":"Rav-Hen","operator:he":"רב חן","wheelchair":"yes"}},{"type":"node","id":1784672723,"lat":32.0956822,"lon":34.9791355,"tags":{"amenity":"library","name":"בית הקשת","name:en":"Beit Hakeshet","name:he":"בית הקשת"}},{"type":"node","id":1791419263,"lat":32.0237403,"lon":34.8098142,"tags":{"amenity":"library","name":"ספריית אזור","name:he":"ספריית אזור","opening_hours":"לא פעיל כרגע"}},{"type":"node","id":1803078939,"lat":31.789507,"lon":34.714083,"tags":{"addr:city":"גן יבנה","addr:housenumber":"8","addr:street":"העצמאות","amenity":"hospital","bus":"yes","emergency":"yes","gtfs:stop_code:IL-MOT":"32199","gtfs:stop_id:IL-MOT":"16139","gtfs:stop_name:IL-MOT":"קופת חולים מאוחדת/העצמאות","healthcare":"hospital","highway":"bus_stop","name":"קופת חולים מאוחדת/העצמאות","name:ar":"صندوق المرضى مئوحيدت/هَعتسمؤوت","name:en":"Kupat Holim Meuhedet/Ha'Atsma'ut","name:he":"קופת חולים מאוחדת/העצמאות","object:city":"גן יבנה","object:housenumber":"5","object:street":"העצמאות","public_transport":"platform","ref":"32199","route_ref":"17;17א;27;28;36;38;38א"}},{"type":"node","id":1834398520,"lat":32.116595,"lon":34.8430464,"tags":{"amenity":"library"}},{"type":"node","id":1839732555,"lat":32.0877467,"lon":34.8882351,"tags":{"amenity":"library","name":"הספרייה המרכזית על שם ספיר","opening_hours":"Tu-Th,Su 10:15-18:45; Fr 09:00-12:45"}},{"type":"node","id":1857114812,"lat":32.0768665,"lon":34.8102487,"tags":{"amenity":"library","email":"Yadlabanim-lib@kehilatayim.org.il","name":"בית יד לבנים","name:en":"Yad Labanim Library","name:he":"בית יד לבנים","opening_hours":"Su,Tu,We,Th 10:00-19:00; Mo 10:00-14:00; Fr 09:00-13:00","opening_hours:url":"https://givatayim.muni.il/%D7%A1%D7%A4%D7%A8%D7%99%D7%95%D7%AA-%D7%A2%D7%99%D7%A8%D7%95%D7%A0%D7%99%D7%95%D7%AA/","phone":"+972 03 6720444"}},{"type":"node","id":1894962976,"lat":32.3489919,"lon":34.8705475,"tags":{"amenity":"library"}},{"type":"node","id":2007940779,"lat":32.1677593,"lon":34.8417499,"tags":{"amenity":"cinema","name":"סינמטק הרצליה","name:en":"Herzliya cinematheque","name:he":"סינמטק הרצליה","opening_hours":"\"show hours\"","website":"https://www.hcinema.org.il/","wikidata":"Q6667847"}},{"type":"node","id":2145114666,"lat":32.2698764,"lon":34.8866593,"tags":{"amenity":"library","name":"ספריה עירונית","name:en":"Municipal library","name:he":"ספריה עירונית"}},{"type":"node","id":2145127678,"lat":32.2691132,"lon":34.8905431,"tags":{"amenity":"cinema"}},{"type":"node","id":2175103439,"lat":32.0927921,"lon":34.8649406,"tags":{"amenity":"cinema","level":"1","name":"Hot Cinema"}},{"type":"node","id":2204279682,"lat":32.1425368,"lon":34.8163271,"tags":{"amenity":"library","name":"המרכז למורשת המודיעין מרכז המידע למודיעין ולטרור הספריה","name:en":"Israel Intelligence Heritage and Commemoration Center Library","name:he":"המרכז למורשת המודיעין מרכז המידע למודיעין ולטרור הספריה"}},{"type":"node","id":2231244913,"lat":31.931084,"lon":34.7960458,"tags":{"amenity":"library","name":"ספריה עירונית","name:en":"Municipal Library","name:he":"ספריה עירונית","wheelchair":"yes"}},{"type":"node","id":2344638618,"lat":32.3109686,"lon":35.0291479,"tags":{"addr:housename":"دليل طولكرم الطبي الالكتروني | خضوري","amenity":"hospital","emergency":"yes","healthcare":"hospital","name":"صيدلية حمام الجديدة"}},{"type":"node","id":2344644007,"lat":32.3139052,"lon":35.0279403,"tags":{"amenity":"library","emergency":"yes","name":"عيادة طب الاسنان | الدكتور شرحبيل دقة"}},{"type":"node","id":2357288319,"lat":32.307225,"lon":35.0284191,"tags":{"addr:housename":"طولكرم - بجانب المخبز الفرنسي","amenity":"hospital","healthcare":"hospital","name":"صيدلية وسم","note":"دليل طولكرم الطبي الالكتروني"}},{"type":"node","id":2398196475,"lat":32.1459542,"lon":34.985245,"tags":{"amenity":"library","name":"ספריית נירית","name:en":"Nirit library","name:he":"ספריית נירית"}},{"type":"node","id":2422181307,"lat":32.3198768,"lon":34.8550593,"tags":{"amenity":"library","name":"ספריה עירונית","name:he":"ספריה עירונית"}},{"type":"node","id":2440917180,"lat":32.0976529,"lon":34.896858,"tags":{"amenity":"library"}},{"type":"node","id":2470120263,"lat":31.7928269,"lon":34.6389069,"tags":{"addr:city":"אשדוד","addr:street":"הגדוד העברי","amenity":"cinema","cinema:3D":"yes","name":"הוט סינמה אשדוד","name:en":"HOT Cinema Ashdod","name:he":"הוט סינמה אשדוד","operator":"הוט סינמה","screen":"6","website":"https://hotcinema.co.il/theater/5","wheelchair":"limited"}},{"type":"node","id":2550892207,"lat":32.1787294,"lon":34.9039345,"tags":{"amenity":"cinema","name":"גלובוס מקס","name:en":"Globus Max","name:he":"גלובוס מקס","website":"https://www.globusmax.co.il/"}},{"type":"node","id":2677893804,"lat":32.1055992,"lon":35.1750897,"tags":{"addr:city":"אריאל","addr:housenumber":"5","addr:street":"העצמאות","amenity":"library","contact:phone":"03-9061838","level":"2","name":"ספריה עירונית","name:en":"Municipal library","name:he":"ספריה עירונית","opening_hours":"Su,Tu,Th 10:00-12:00 \"book lending only, no reading room\", Su,Tu,Th 16:00-20:00 \"reading room available\"; week 1-53/2 Fr 10:00-12:00 \"book lending only, no reading room\"; PH off"}},{"type":"node","id":3017893502,"lat":32.0120473,"lon":34.7772598,"tags":{"amenity":"library","name":"ספריה מרכזית חולון","name:en":"Municipal library","name:he":"ספריה מרכזית חולון"}},{"type":"node","id":3089831318,"lat":31.8428383,"lon":34.7535625,"tags":{"amenity":"library","name":"ספריית בניה","name:he":"ספריית בניה"}},{"type":"node","id":3280268139,"lat":32.0831901,"lon":34.8923868,"tags":{"amenity":"library"}},{"type":"node","id":3350212637,"lat":32.3137896,"lon":35.0299657,"tags":{"addr:city":"Tulkarm","addr:postcode":"00970","addr:street":"The Hospital Street","amenity":"hospital","healthcare":"hospital","healthcare:speciality":"radiology","name":"Al-quds Radiology Clinic","note":"ele, the first floor","operator":"Dr.Taher Hannoun","phone":"00970569316115"}},{"type":"node","id":3657606492,"lat":32.0489509,"lon":35.16504,"tags":{"amenity":"hospital","name":"عيادة طبية"}},{"type":"node","id":3725094473,"lat":31.8072764,"lon":34.6586582,"tags":{"amenity":"library"}},{"type":"node","id":3725094474,"lat":31.8072839,"lon":34.6617681,"tags":{"amenity":"library"}},{"type":"node","id":3788878438,"lat":31.8073539,"lon":34.6585101,"tags":{"amenity":"library","name":"ספרייה ומרכז משאבים בי\"ס מקיף א' אשדוד","name:he":"ספרייה ומרכז משאבים בי\"ס מקיף א' אשדוד"}},{"type":"node","id":3890059774,"lat":31.7287612,"lon":34.8326876,"tags":{"amenity":"library","name":"ספרית תיכון צפית","name:he":"ספרית תיכון צפית"}},{"type":"node","id":4174135298,"lat":32.1908553,"lon":34.9675946,"tags":{"addr:street":"حي غياظة","amenity":"library","name":"مكتبة الهدى","name:ar":"مكتبة الهدى","name:en":"Al - Huda Library","opening_hours":"Sa-Th 08:30-20:00","phone":"092949956"}},{"type":"node","id":4293681290,"lat":32.0305825,"lon":35.2064759,"tags":{"amenity":"cinema","name":"Al karam wedding hall","name:ar":"قاعة الكرم"}},{"type":"node","id":4374638291,"lat":32.0510288,"lon":34.9234734,"tags":{"amenity":"library","name":"ספריית מזור","name:en":"Mazor Library","name:he":"ספריית מזור"}},{"type":"node","id":4374648484,"lat":32.0332088,"lon":34.7481033,"tags":{"addr:city":"תל אביב-יפו","addr:housenumber":"21","addr:street":"אייזק חריף","amenity":"library","name":"ספריית יפו ג","name:he":"ספריית יפו ג","opening_hours":"15:00-19:00","operator":"Tel Aviv-Yaffo City"}},{"type":"node","id":4376848006,"lat":32.1651877,"lon":34.9274957,"tags":{"amenity":"cinema","name":"Globus Max Kfar-Saba","name:en":"Globus Max Kfar-Saba"}},{"type":"node","id":4448938190,"lat":31.8889569,"lon":34.9632934,"tags":{"amenity":"cinema","fixme":"name, name:he mismatch. Flagged by SafwatHalaby_bot-nameCopy","name":"הוט סינמה מודיעין","name:he":"הוט סינמה"}},{"type":"node","id":4508937490,"lat":32.1145818,"lon":35.0822291,"tags":{"addr:postcode":"380","addr:street":"بديا","amenity":"library","name":"مكتبة بلدية بديا للأطفال","name:ar":"مكتبة بلدية بديا للأطفال","name:en":"Bedia Municipal Children's Library"}},{"type":"node","id":4514301989,"lat":32.319706,"lon":35.0304942,"tags":{"addr:housenumber":"092675828","addr:street":"دوار شويكة","amenity":"library","name":"شركة الجيتاوي","name:ar":"شركة الجيتاوي","opening_hours":"Sa-Th 08:00-17:00","phone":"092675828"}},{"type":"node","id":4525258189,"lat":31.8973861,"lon":35.1707331,"tags":{"amenity":"library","name":"مكتبة الحسام","name:ar":"مكتبة الحسام"}},{"type":"node","id":4566942798,"lat":31.9775214,"lon":34.7650399,"tags":{"amenity":"library","name":"כותר ראשון – שקמה","name:he":"כותר ראשון – שקמה"}},{"type":"node","id":4721708180,"lat":31.9539986,"lon":34.8207239,"tags":{"amenity":"library","name":"ספריית שיכון המזרח","name:en":"Shikun HaMizrah Library","name:he":"ספריית שיכון המזרח"}},{"type":"node","id":4891642058,"lat":32.0055131,"lon":35.1221844,"tags":{"amenity":"library"}},{"type":"node","id":4908117993,"lat":32.160434,"lon":35.1357182,"tags":{"amenity":"library"}},{"type":"node","id":4944377621,"lat":32.1307784,"lon":35.206758,"tags":{"amenity":"hospital","name":"عيادة جماعين الحكوميه","name:ar":"عيادة جماعين الحكوميه"}},{"type":"node","id":4944789424,"lat":32.306474,"lon":35.0250201,"tags":{"amenity":"hospital","healthcare":"hospital","name":"دكتور اعصاب","name:ar":"الدكتور عمر عدس"}},{"type":"node","id":4979745922,"lat":32.3062993,"lon":35.0272986,"tags":{"addr:street":"Military Medical Services Street","amenity":"cinema","email":"MomenJallad@Gmail.com","internet_access":"wlan","name":"مؤمن جلاد للانتاج الفني","name:en":"MOMEN JALLAD Productions","opening_hours":"24/7","operator":"Momen Jallad","phone":"+972599045256","website":"http://www.MomenJallad.com"}},{"type":"node","id":4983756124,"lat":32.1945052,"lon":34.9746581,"tags":{"addr:street":"شارع المدارس","amenity":"hospital","internet_access":"wlan","name":"صحة قلقيلية المركزية","name:en":"Central Qalqiliya Health"}},{"type":"node","id":5111375322,"lat":31.7821473,"lon":34.6328825,"tags":{"amenity":"library"}},{"type":"node","id":5141629925,"lat":32.3100675,"lon":35.1136259,"tags":{"amenity":"hospital","name":"سان جون عنبتا"}},{"type":"node","id":5224302574,"lat":32.0137923,"lon":34.9339173,"tags":{"amenity":"hospital","healthcare":"doctor","name":"מרפאה","name:he":"מרפאה","operator":"קופת חולים כללית"}},{"type":"node","id":5297822300,"lat":32.149166,"lon":34.8396263,"tags":{"amenity":"cinema","contact:website":"http://www.cohav.co.il","name":"קולנוע כוכב","name:he":"קולנוע כוכב","wikidata":"Q6758787"}},{"type":"node","id":5317001671,"lat":31.933949,"lon":35.1633887,"tags":{"amenity":"hospital","name":"المستشفى الاستشاري Istishari Hospital","name:ar":"المستشفى الاستشاري Istishari Hospital"}},{"type":"node","id":5518061223,"lat":32.0940495,"lon":35.0384707,"tags":{"amenity":"hospital","name":"ذي","tourism":"attraction"}},{"type":"node","id":5775225553,"lat":32.3128877,"lon":35.0275357,"tags":{"addr:street":"King Husein Street","amenity":"library","email":"diaa401@hotmail.com","internet_access":"wlan","name":"مكتبة السفاريني 1","name:en":"safarini Bookshop 1","opening_hours":"Mo-Su 09:00-21:00","phone":"092671042"}},{"type":"node","id":6052574786,"lat":31.854812,"lon":34.8356621,"tags":{"amenity":"cinema","name":"שקד","name:en":"Shaked","name:he":"שקד"}},{"type":"node","id":6095670919,"lat":32.0577396,"lon":34.7784209,"tags":{"amenity":"library","name":"ספריית גן לוינסקי","name:en":"The Garden Library","name:he":"ספריית גן לוינסקי","wikidata":"Q7068296","wikipedia":"he:ספריית גן לוינסקי","wikipedia:he":"ספריית גן לוינסקי"}},{"type":"node","id":6226745270,"lat":32.0691706,"lon":34.8063011,"tags":{"amenity":"library","name":"ספריית בית אלון","name:en":"Beit Alon Library","name:he":"ספריית בית אלון","website":"https://giva.libraries.co.il/"}},{"type":"node","id":6637671870,"lat":32.1052322,"lon":35.2066713,"tags":{"amenity":"library","opening_hours":"Su-Th 08:00-24:00; Fr 08:00-14:00","operator":"אוניברסיטת אריאל","website":"https://www.ariel.ac.il/wp/library/"}},{"type":"node","id":7069568645,"lat":31.9085057,"lon":34.8113592,"tags":{"amenity":"library","check_date":"2025-12-03","internet_access":"yes","name":"Science Teaching Library","name:en":"Science Teaching Library"}},{"type":"node","id":7245996085,"lat":32.1834451,"lon":34.9706634,"tags":{"addr:street":"Al-Tarbbiye","amenity":"hospital","name":"مركز الشفاء"}},{"type":"node","id":7500655104,"lat":32.2744158,"lon":35.0833396,"tags":{"amenity":"hospital","healthcare":"hospital","name":"عيادة قرية شوفة"}},{"type":"node","id":7603892685,"lat":32.1145433,"lon":35.0766702,"tags":{"amenity":"library","name":"مطبعة بديا","opening_hours":"Sa-Th 08:00-21:00","phone":"092995441"}},{"type":"node","id":7748182886,"lat":32.1669107,"lon":34.8463011,"tags":{"amenity":"library","name":"הספריה הראשית הרצליה","name:he":"הספריה הראשית הרצליה"}},{"type":"node","id":7948633486,"lat":32.1726151,"lon":34.9295483,"tags":{"amenity":"cinema"}},{"type":"node","id":8168157718,"lat":32.1803989,"lon":34.8710483,"tags":{"amenity":"library","description":"ספריה עירונית ובה אוסף מגוון של ספרי קריאה לכל הגילים בעברית, אנגלית, צרפתית ורוסית.","description:he":"ספריה עירונית ובה אוסף מגוון של ספרי קריאה לכל הגילים בעברית, אנגלית, צרפתית ורוסית.","image":"https://upload.wikimedia.org/wikipedia/commons/c/c2/IHM_ספריית_יד_לבנים.jpeg","name":"ספריית יד לבנים","name:he":"ספריית יד לבנים","website":"https://www.raanana.muni.il/Library/Pages/aboutlibrary.aspx"}},{"type":"node","id":8316582367,"lat":32.0373396,"lon":35.0510065,"tags":{"amenity":"library","name":"ספריית לבונה בית אריה","name:he":"ספריית לבונה בית אריה"}},{"type":"node","id":8338840320,"lat":32.0163346,"lon":35.0666926,"tags":{"amenity":"hospital","healthcare":"hospital","name":"عيادة الدكتور نضال جابر م. سعادة"}},{"type":"node","id":8405552750,"lat":32.3330929,"lon":34.8544626,"tags":{"addr:city":"נתניה","addr:housenumber":"2","addr:street":"יואל סלומון","amenity":"library","contact:email":"debby@sifrianet.org.il","contact:phone":"+97298337187","contact:website":"https://www.sifrianet.org.il/html5/?_id=11925&did=1124&title=english","internet_access":"yes","internet_access:fee":"no","name":"Devorah Ben - Yehuda","name:en":"Devorah Ben - Yehuda","wikidata":"Q5375469"}},{"type":"node","id":8871341814,"lat":32.0792655,"lon":34.8482961,"tags":{"amenity":"library","name":"ספריית גבעת שמואל","name:he":"ספריית גבעת שמואל","website":"https://givat-shmuel.libraries.co.il"}},{"type":"node","id":9296351364,"lat":32.1005488,"lon":34.899964,"tags":{"amenity":"library","name":"ספריית החלומות","name:he":"ספריית החלומות"}},{"type":"node","id":9388508884,"lat":32.1742773,"lon":34.8529826,"tags":{"amenity":"library"}},{"type":"node","id":9965475692,"lat":32.0748102,"lon":34.7753592,"tags":{"amenity":"cinema","name":"Lev Dizengof לב דיזנגוף","website":"https://www.lev.co.il/location/telaviv/"}},{"type":"node","id":10058066766,"lat":31.9195208,"lon":35.0029636,"tags":{"amenity":"library","name":"ספריית כרמים","name:he":"ספריית כרמים"}},{"type":"node","id":11363783369,"lat":32.0871625,"lon":34.7856885,"tags":{"addr:housenumber":"106","addr:street":"ז'בוטינסקי","air_conditioning":"yes","amenity":"library","baby_feeding":"no","check_date":"2023-12-18","internet_access":"wlan","internet_access:ssid":"Tlv-Sch","level":"2","name":"ספריית הגימנסיה הרצליה","name:en":"Herzliya Gymnasium Library","name:he":"ספריית הגימנסיה הרצליה","operator:type":"school"}},{"type":"node","id":11967576830,"lat":31.7732673,"lon":34.6178947,"tags":{"amenity":"library"}},{"type":"node","id":12073333225,"lat":32.0877141,"lon":34.8845427,"tags":{"amenity":"library","name":"ספרייה לדוברי השפה הרוסית","name:en":"Library for Russian speakers","name:he":"ספרייה לדוברי השפה הרוסית","name:ru":"Библиотека для русскоговорящих"}},{"type":"node","id":12475375534,"lat":31.9312352,"lon":34.868979,"tags":{"amenity":"library"}},{"type":"node","id":12585801178,"lat":32.0005461,"lon":34.9472371,"tags":{"amenity":"library","kids_area":"yes","kids_area:fee":"yes","name":"ספריית שוהם","operator":"חמש","toilets":"yes","toilets:access":"yes","toilets:wheelchair":"designated","website":"https://hamesh.co.il/department/%D7%A1%D7%A4%D7%A8%D7%99%D7%99%D7%94/","wheelchair":"designated"}},{"type":"node","id":12864898968,"lat":32.0790542,"lon":34.8216192,"tags":{"amenity":"library","check_date":"2025-05-26"}},{"type":"node","id":12946222126,"lat":32.0814443,"lon":34.7897265,"tags":{"addr:city":"תל אביב-יפו","addr:housenumber":"14","addr:street":"ויצמן","amenity":"hospital","emergency":"yes","healthcare":"hospital","healthcare:speciality":"oncology;general;диагностика;частный_прием_врача;ophthalmology;paediatrics;dermatology;psychiatry;urology;cardiology","name":"מרפאות טופ איכיפוב","name:he":"מרפאות טופ איכיפוב","name:ru":"Клиники Топ Ихилов","phone":"+97237621629","website":"https://www.topichilov.com/"}},{"type":"node","id":13020625541,"lat":32.1033101,"lon":34.8836631,"tags":{"amenity":"library","level":"1","name":"ספריה עירונית","official_name":"ספרייה עירונית על שם זאב רווח"}},{"type":"node","id":13449140854,"lat":32.2953372,"lon":35.0173379,"tags":{"amenity":"hospital","healthcare":"hospital"}},{"type":"node","id":13685654705,"lat":31.8979324,"lon":34.7882709,"tags":{"amenity":"hospital","healthcare":"hospital"}},{"type":"node","id":13897782444,"lat":31.8165572,"lon":34.978476,"tags":{"addr:floor":"1,2","amenity":"library","check_date":"2026-05-31","description":"Community library, used also for conferences.","internet_access":"wlan","internet_access:fee":"customers","name":"Library Building","name:en":"Library","name:he":"סיפריה","operator:type":"community","wheelchair":"yes"}},{"type":"way","id":26599740,"center":{"lat":32.0803252,"lon":34.7901815},"tags":{"addr:city":"תל אביב-יפו","amenity":"hospital","healthcare":"hospital","name":"בי\"ח איכילוב","name:en":"Ichilov Hospital","name:he":"בי\"ח איכילוב","name:ro":"Spitalul Ichilov","name:ru":"Больница Ихилов","wikidata":"Q2561450"}},{"type":"way","id":30750762,"center":{"lat":32.0889382,"lon":34.8673965},"tags":{"alt_name:en":"Beilinson Hospital","alt_name:he":"בית חולים ביילינסון","amenity":"hospital","healthcare":"hospital","name":"מרכז רפואי רבין – קמפוס ביילינסון","name:en":"Rabin Medical Center – Beilinson Campus","name:he":"מרכז רפואי רבין – קמפוס ביילינסון","wikidata":"Q2071553","wikipedia":"he:מרכז רפואי רבין","wikipedia:he":"מרכז רפואי רבין"}},{"type":"way","id":34848283,"center":{"lat":31.8721221,"lon":34.8161032},"tags":{"amenity":"hospital","barrier":"fence","healthcare":"hospital","name":"בית חולים קפלן","name:en":"Kaplan Hospital","name:he":"בית חולים קפלן","wikidata":"Q2890053"}},{"type":"way","id":42449535,"center":{"lat":32.0470959,"lon":34.8454675},"tags":{"alt_name":"מרכז רפואי חיים שיבא","alt_name:en":"Chaim Sheba Medical Center","alt_name:he":"מרכז רפואי חיים שיבא","alt_name:ru":"Медицинский центр Шиба","amenity":"hospital","check_date":"2024-03-28","contact:website":"http://www.sheba.co.il/","gns_ref":"-781574","healthcare":"hospital","internet_access":"wlan","name":"בית חולים תל השומר","name:en":"Tel HaShomer Hospital","name:he":"בית חולים תל השומר","wheelchair":"yes","wikidata":"Q2915012"}},{"type":"way","id":47332260,"center":{"lat":32.0267925,"lon":34.8602768},"tags":{"amenity":"library","building":"yes","name":"ספריה ציבורית","name:en":"Public Library","name:he":"ספריה ציבורית"}},{"type":"way","id":48118175,"center":{"lat":32.1116695,"lon":34.8022474},"tags":{"amenity":"library","building":"yes","name":"ספריית מדעי החברה","name:en":"Social Sciences Library","name:he":"ספריית מדעי החברה","toilets:wheelchair":"yes","wheelchair":"yes"}},{"type":"way","id":48118256,"center":{"lat":32.1148112,"lon":34.804223},"tags":{"amenity":"library","building":"yes","fixme":"name, name:he mismatch. Flagged by SafwatHalaby_bot-nameCopy","name":"ספריית וינר ואגף רישום ומנהל תלמידים","name:en":"Weiner Library","name:he":"ספריית וינר"}},{"type":"way","id":48145098,"center":{"lat":32.0571163,"lon":34.857298},"tags":{"addr:city":"קריית אונו","addr:housenumber":"5","addr:street":"המייסדים","amenity":"library","internet_access":"wlan","name":"ספריה עירונית","name:en":"Public library","name:he":"ספריה עירונית","operator":"עיריית קריית אונו","operator:type":"public"}},{"type":"way","id":48949522,"center":{"lat":31.9662146,"lon":34.8398117},"tags":{"amenity":"hospital","healthcare":"hospital","name":"מרכז רפואי יצחק שמיר – קמפוס אסף הרופא","name:en":"Yitzhak Shamir Medical Center – Assaf HaRofeh Campus","name:he":"מרכז רפואי יצחק שמיר – קמפוס אסף הרופא","website":"http://www.assafh.org","wikidata":"Q2067213","wikipedia":"he:מרכז רפואי אסף הרופא","wikipedia:he":"מרכז רפואי אסף הרופא"}},{"type":"way","id":91707465,"center":{"lat":32.1868651,"lon":34.8560535},"tags":{"amenity":"hospital","barrier":"fence","description":"בית החולים לוינשטיין הוא בית חולים שיקומי ברעננה.","description:he":"בית החולים לוינשטיין הוא בית חולים שיקומי ברעננה.","emergency":"no","healthcare":"hospital","name":"המרכז הרפואי לשיקום לוינשטיין","name:en":"Loewenstein Rehabilitation Hospital","name:he":"המרכז הרפואי לשיקום לוינשטיין","name:ru":"Реабилитационная больница Левинштейн","website":"https://hospitals.clalit.co.il/loewenstein/he/Pages/default.aspx","wikidata":"Q4272893","wikipedia":"he:המרכז הרפואי לשיקום לוינשטיין","wikipedia:he":"המרכז הרפואי לשיקום לוינשטיין"}},{"type":"way","id":96837834,"center":{"lat":32.076689,"lon":34.7862804},"tags":{"alt_name:en":"Ariela House","amenity":"library","building":"yes","name":"בית אריאלה","name:en":"Beit Ariela Shaar Zion Library","name:he":"ספריית שער ציון – בית אריאלה","toilets:wheelchair":"designated","wheelchair":"yes","wikidata":"Q4263244"}},{"type":"way","id":98880824,"center":{"lat":32.1117863,"lon":34.8039382},"tags":{"amenity":"library","building":"yes","name":"ספריית משפטים","name:en":"Law School Library","name:he":"ספריית משפטים"}},{"type":"way","id":100058293,"center":{"lat":31.9164508,"lon":34.7913461},"tags":{"amenity":"hospital","emergency":"no","healthcare":"hospital","name":"המרכז לבריאות הנפש נס ציונה","name:en":"Ness Ziona Mental Health center","name:he":"המרכז לבריאות הנפש נס ציונה"}},{"type":"way","id":102519383,"center":{"lat":32.1161434,"lon":34.8054042},"tags":{"amenity":"library","building":"yes","building:levels":"1","name":"הספרייה למדעי החיים ולרפואה ע\"ש גיטר־סמולרש","name:en":"Gitter-Smolarz Library of Life Sciences and Medicine","name:he":"הספרייה למדעי החיים ולרפואה ע\"ש גיטר־סמולרש"}},{"type":"way","id":103513136,"center":{"lat":32.1109432,"lon":34.8065634},"tags":{"amenity":"library","building":"yes","name":"ספריית מדעים מדוייקים","name:en":"Exact Sciences Library","name:he":"ספריית מדעים מדוייקים","wikidata":"Q55767170"}},{"type":"way","id":106450131,"center":{"lat":31.902394,"lon":34.8164067},"tags":{"amenity":"library","building":"yes","check_date":"2025-10-11","name":"בית מיכל","name:en":"Beit Michal","name:he":"בית מיכל"}},{"type":"way","id":108230559,"center":{"lat":31.7750336,"lon":34.9514913},"tags":{"amenity":"hospital","name":"מוסד גמילה רטורנו גבעת שמש","name:en":"Retorno, Giv'at Shemesh","name:he":"מוסד גמילה רטורנו גבעת שמש"}},{"type":"way","id":117082874,"center":{"lat":31.9311649,"lon":34.8252645},"tags":{"amenity":"hospital","barrier":"fence","healthcare":"hospital","name":"מרכז רפואי שמואל הרופא","name:en":"Shmuel Haroffe medical center","name:he":"מרכז רפואי שמואל הרופא","wikidata":"Q28916744"}},{"type":"way","id":127413025,"center":{"lat":32.1143349,"lon":34.8044475},"tags":{"amenity":"library","building":"yes","building:levels":"1","name":"הספרייה המרכזית ע\"ש סוראסקי","name:en":"Sourasky Central Library","name:he":"הספרייה המרכזית ע\"ש סוראסקי","wikidata":"Q12406832"}},{"type":"way","id":131828713,"center":{"lat":31.958763,"lon":35.1825519},"tags":{"amenity":"library","building":"yes","name":"Yusuf Ahmed Alghanim Library","name:ar":"مكتبة يوسف أحمد الغانم","name:en":"Yusuf Ahmed Alghanim Library"}},{"type":"way","id":133409825,"center":{"lat":32.0150064,"lon":34.7575904},"tags":{"alt_name:en":"HaSifriya HaIronit","amenity":"library","building":"yes","name":"הספרייה העירונית","name:en":"Municipal Library","name:he":"הספרייה העירונית"}},{"type":"way","id":135308557,"center":{"lat":32.0676924,"lon":34.8426059},"tags":{"amenity":"library","building":"yes","name":"401 הספריה המרכזית ע״ש וורצווילר","name:en":"401 ‪The‬‬ ‫‪Wurzweiler‬‬ ‫‪Central ‫‪Library‬‬","name:he":"401 הספריה המרכזית ע״ש וורצווילר","wikidata":"Q12409378"}},{"type":"way","id":149521638,"center":{"lat":32.070718,"lon":34.7834069},"tags":{"amenity":"cinema","building":"yes","building:levels":"6","name":"סינמטק","name:en":"Cinematheque","name:he":"סינמטק","website":"https://www.cinema.co.il/","wikidata":"Q2916134","wikipedia":"en:Tel Aviv Cinematheque","wikipedia:en":"Tel Aviv Cinematheque"}},{"type":"way","id":157387919,"center":{"lat":32.0903012,"lon":34.8030947},"tags":{"amenity":"library","building":"yes","name":"ספרית מכללת שנקר","name:en":"Shenkar College Library","name:he":"ספרית מכללת שנקר"}},{"type":"way","id":177434184,"center":{"lat":32.0892206,"lon":34.8649094},"tags":{"addr:city":"פתח תקווה","addr:housenumber":"1","addr:postcode":"49100","addr:street":"הלסינקי","amenity":"hospital","healthcare":"hospital","name":"מרכז לבריאות הנפש גהה","name:en":"Geha Mental Health Center","name:he":"מרכז לבריאות הנפש גהה","wikidata":"Q4137808","wikipedia":"he:מרכז לבריאות הנפש גהה","wikipedia:he":"מרכז לבריאות הנפש גהה"}},{"type":"way","id":193650157,"center":{"lat":31.8078615,"lon":34.779887},"tags":{"amenity":"hospital","healthcare":"hospital","name":"בית חולים גריאטרי הרצפלד","name:en":"Hertzfeld Geriatric Hospital","name:he":"בית חולים גריאטרי הרצפלד","wikidata":"Q12406775"}},{"type":"way","id":196468125,"center":{"lat":31.9583359,"lon":35.181964},"tags":{"amenity":"hospital","healthcare":"hospital","name":"AZEEZ SHAHEEN BUILDING","name:ar":"عيادة الجامعة","name:en":"CLI"}},{"type":"way","id":197806534,"center":{"lat":31.9361142,"lon":34.8299681},"tags":{"amenity":"hospital","healthcare":"hospital","name":"בית חולים פסיכיאטרי באר יעקב","name:en":"Be'er Ya'akov Psychiatric Hospital","name:he":"בית חולים פסיכיאטרי באר יעקב"}},{"type":"way","id":202640023,"center":{"lat":31.9796047,"lon":34.7472201},"tags":{"addr:city":"ראשון לציון","addr:housenumber":"4","addr:street":"המאה ועשרים","amenity":"cinema","building":"yes","height":"22","name":"יס פלאנט ראשון לציון","name:en":"Yes Planet","name:he":"יס פלאנט ראשון לציון"}},{"type":"way","id":207079827,"center":{"lat":32.0884314,"lon":34.8691946},"tags":{"amenity":"library","building":"yes","name":"ספריה עירונית","name:he":"ספריה עירונית"}},{"type":"way","id":208748242,"center":{"lat":32.0794932,"lon":34.8813464},"tags":{"alt_name:en":"HaSharon Hospital","alt_name:he":"בית חולים השרון","amenity":"hospital","healthcare":"hospital","name":"מרכז רפואי רבין – קמפוס השרון","name:en":"Rabin Medical Center – HaSharon Campus","name:he":"מרכז רפואי רבין – קמפוס השרון","opening_hours":"24/7","toilets:wheelchair":"yes","wheelchair":"yes"}},{"type":"way","id":209264529,"center":{"lat":31.9919801,"lon":34.7727419},"tags":{"addr:city":"ראשון לציון","addr:housenumber":"13","addr:street":"אליעזר מזל","amenity":"hospital","building":"hospital","check_date":"2024-06-05","healthcare":"hospital","name":"אסותא ראשון לציון","name:en":"Assuta Rishon Lezion","name:he":"אסותא ראשון לציון"}},{"type":"way","id":212313170,"center":{"lat":31.948602,"lon":34.7894409},"tags":{"addr:city":"ראשון לציון","addr:housenumber":"95","addr:postcode":"7510002","addr:street":"דוד רמז","amenity":"hospital","healthcare":"hospital","name":"מרכז גריאטרי","name:en":"Geriatric Center","name:he":"המרכז הגריאטרי ראשון לציון","operator:type":"government","phone":"+972 03-9483444","start_date":"1956"}},{"type":"way","id":224137605,"center":{"lat":31.8786169,"lon":34.8003978},"tags":{"addr:city":"גן שלמה (קבוצת שילר)","amenity":"library","building":"yes"}},{"type":"way","id":226867415,"center":{"lat":32.0751184,"lon":34.8783967},"tags":{"amenity":"library","building":"civic","wheelchair":"limited"}},{"type":"way","id":231856610,"center":{"lat":32.025483,"lon":34.7575219},"tags":{"alt_name:en":"Abarbanel Mental Health Center","amenity":"hospital","emergency":"yes","name":"המרכז הרפואי לבריאות הנפש אברבנאל","name:en":"Yehuda Abarbanel Mental Health Center","name:he":"המרכז הרפואי לבריאות הנפש אברבנאל","wikidata":"Q4054323"}},{"type":"way","id":236834265,"center":{"lat":31.8070801,"lon":34.6525867},"tags":{"amenity":"library","building":"yes","name":"סיפרייה עירונית","name:he":"סיפרייה עירונית","wikidata":"Q82077624"}},{"type":"way","id":239176146,"center":{"lat":32.0713948,"lon":34.893416},"tags":{"amenity":"hospital","barrier":"fence","name":"בית רבקה","name:en":"Beit Rivka","name:he":"בית רבקה","wikidata":"Q4081253"}},{"type":"way","id":243519079,"center":{"lat":31.7906946,"lon":34.6624454},"tags":{"amenity":"library","name":"ספריית חברא הספרייה המרכזית לציבור החרדי","name:he":"ספריית חברא הספרייה המרכזית לציבור החרדי"}},{"type":"way","id":253373054,"center":{"lat":31.93392,"lon":35.163039},"tags":{"amenity":"hospital","building":"yes","emergency":"yes","fixme":"name, name:en mismatch.","healthcare":"hospital","healthcare:speciality":"general;maternity;paediatrics;orthopaedics;surgery;cardiology;emergency;oncology;gynaecology;internal;radiology","name":"Al Reehan","name:ar":"مستشفى الاستشاري العربي","name:en":"Istishari Arab Hospital","wikidata":"Q55965644"}},{"type":"way","id":253584201,"center":{"lat":31.9665065,"lon":34.803804},"tags":{"addr:city":"ראשון לציון","addr:housenumber":"7","addr:street":"תרמ\"ב","amenity":"library","building":"yes","name":"כותר ראשון תרמ\"ב","name:he":"כותר ראשון תרמ\"ב"}},{"type":"way","id":253711638,"center":{"lat":31.9635623,"lon":34.792418},"tags":{"addr:city":"ראשון לציון","addr:housenumber":"3","addr:street":"יצחק שדה","amenity":"library","building":"yes","name":"ספריית יצחק שדה","name:he":"ספריית יצחק שדה"}},{"type":"way","id":253789091,"center":{"lat":31.9561601,"lon":34.8147607},"tags":{"amenity":"library","building":"yes","name":"כותר ראשון - אלון","name:en":"Alon library","name:he":"כותר ראשון - אלון"}},{"type":"way","id":253996942,"center":{"lat":31.9659336,"lon":34.8166947},"tags":{"amenity":"library","building":"yes","name":"ספריית רוזן","name:he":"ספריית רוזן"}},{"type":"way","id":260349454,"center":{"lat":32.2013646,"lon":34.9263142},"tags":{"amenity":"library","building":"yes","name":"ספריה","name:en":"Library","name:he":"ספריה"}},{"type":"way","id":285249371,"center":{"lat":31.8746295,"lon":34.7356628},"tags":{"amenity":"library","building":"yes","name":"הספריה העירונית יבנה","name:en":"Yavne Municipal Library","name:he":"הספריה העירונית יבנה","opening_hours":"Su 09:00-12:00,15:00-19:00; Mo 15:00-19:00; Tu 09:00-12:00; We 09:00-12:00,15:00-19:00; Th 15:00-19:00; Fr 09:00-12:00"}},{"type":"way","id":287698363,"center":{"lat":32.1328244,"lon":34.8609809},"tags":{"amenity":"library","building":"yes","name":"ספריית דני ארמה","name:en":"Danny Arama library","name:he":"ספריית דני ארמה"}},{"type":"way","id":295008136,"center":{"lat":32.3453934,"lon":34.8570722},"tags":{"amenity":"hospital","check_date":"2025-08-16","emergency":"yes","name":"בית חולים לניאדו","name:en":"Laniado Hospital","name:he":"בית חולים לניאדו","wheelchair":"yes","wikidata":"Q2918008"}},{"type":"way","id":295023673,"center":{"lat":32.181693,"lon":34.8956303},"tags":{"amenity":"hospital","healthcare":"hospital","name":"מרכז רפואי מאיר","name:en":"Meir Hospital","name:he":"מרכז רפואי מאיר","wikidata":"Q2918928","wikipedia":"he:מרכז רפואי מאיר","wikipedia:he":"מרכז רפואי מאיר"}},{"type":"way","id":295024958,"center":{"lat":32.0848662,"lon":34.844595},"tags":{"addr:city":"בני ברק","addr:housenumber":"17","addr:street":"הרב פוברסקי","amenity":"hospital","check_date":"2026-06-18","emergency":"yes","healthcare":"hospital","name":"בית חולים מעייני הישועה","name:en":"Mayanei Hayeshua","name:he":"בית חולים מעייני הישועה","wheelchair":"yes","wikidata":"Q12040651"}},{"type":"way","id":295081431,"center":{"lat":32.1077773,"lon":34.8384268},"tags":{"addr:housenumber":"20","addr:street":"הברזל","amenity":"hospital","healthcare":"hospital","internet_access":"wlan","name":"בית חולים אסותא","name:en":"Assuta Hospital","name:he":"בית חולים אסותא","name:ru":"Ассута","wikidata":"Q2597185"}},{"type":"way","id":295625875,"center":{"lat":31.9177988,"lon":34.7901227},"tags":{"amenity":"hospital","building":"yes","name":"מרפאת ילדים ונוער","name:en":"children hospital","name:he":"מרפאת ילדים ונוער"}},{"type":"way","id":295823934,"center":{"lat":32.0471693,"lon":34.8464723},"tags":{"alt_name:he":"ספריה רפואית","amenity":"library","building":"university","name":"ספרייה רפואית","name:en":"Gutwirth Medical Library","name:he":"ספרייה רפואית"}},{"type":"way","id":295995568,"center":{"lat":32.0350133,"lon":34.7635397},"tags":{"amenity":"hospital","healthcare":"hospital","name":"מרכז רפואי וולפסון","name:en":"Wolfson Medical Center","name:he":"מרכז רפואי וולפסון","name:ro":"Centrul Medical Wolfson","name:ru":"Медицинский Центр Вольфсон","wikidata":"Q2091071"}},{"type":"way","id":296006354,"center":{"lat":32.0305339,"lon":34.8729759},"tags":{"addr:housenumber":"2","addr:street":"פנינים","amenity":"library","building":"yes","name":"Library","name:en":"Library"}},{"type":"way","id":314692245,"center":{"lat":32.3002837,"lon":34.9134691},"tags":{"amenity":"hospital","name":"בית חולים לבריאות הנפש לב השרון","name:en":"Lev Hasharon mental hospital","name:he":"בית חולים לבריאות הנפש לב השרון","wikidata":"Q6991675"}},{"type":"way","id":332328224,"center":{"lat":32.0228599,"lon":34.7796342},"tags":{"addr:city":"חולון","addr:housenumber":"18","addr:street":"בן-יהודה אליעזר","amenity":"library","building":"yes","name":"Ben Yehuda Library","name:en":"Ben Yehuda Library","name:he":"ספריית בן יהודה"}},{"type":"way","id":345700053,"center":{"lat":31.7797208,"lon":34.6569928},"tags":{"amenity":"hospital","healthcare":"hospital","name":"בית חולים אסותא אשדוד","name:en":"Assuta Ashdod Hospital","name:he":"בית חולים אסותא אשדוד","wikidata":"Q6887035"}},{"type":"way","id":370971350,"center":{"lat":31.9706632,"lon":34.7721174},"tags":{"amenity":"library","building":"yes","name":"ספריה מרכזית","name:en":"Main Library","name:he":"ספריה מרכזית"}},{"type":"way","id":398718397,"center":{"lat":31.9355988,"lon":34.8348018},"tags":{"amenity":"library","building":"yes","name":"ספריה עירונית","name:en":"Municipal Library","name:he":"ספריה עירונית"}},{"type":"way","id":400189850,"center":{"lat":32.0782609,"lon":34.905757},"tags":{"addr:city":"פתח תקווה","addr:housenumber":"26","addr:street":"דרך מנחם בגין","amenity":"library","building":"yes","name":"Hadar Ganim Library","name:en":"Hadar Ganim Library"}},{"type":"way","id":414447026,"center":{"lat":32.0983258,"lon":34.9450942},"tags":{"amenity":"library","building":"yes","internet_access":"terminal;wlan","internet_access:fee":"no","name":"ספריה עירונית","name:en":"Municipal library","name:he":"ספריה עירונית","wheelchair":"designated"}},{"type":"way","id":415523183,"center":{"lat":31.9516032,"lon":34.8866199},"tags":{"addr:city":"Lod","addr:street":"שדרות דוד המלך","amenity":"library","building":"demolished","name":"הספרייה העירונית","name:he":"הספרייה העירונית"}},{"type":"way","id":422346118,"center":{"lat":31.9323854,"lon":34.7044528},"tags":{"amenity":"library","building":"yes"}},{"type":"way","id":481476311,"center":{"lat":32.3355575,"lon":35.0117038},"tags":{"amenity":"library","building":"yes"}},{"type":"way","id":498935913,"center":{"lat":32.1097512,"lon":35.0356974},"tags":{"amenity":"library","building":"yes","name":"ספרייה","name:he":"ספרייה"}},{"type":"way","id":525861387,"center":{"lat":32.0007204,"lon":35.1767077},"tags":{"addr:city":"עטרת","addr:housenumber":"9","addr:street":"בני חשמונאי","amenity":"library","building":"yes","internet_access":"no","name":"ספריית עטרת","name:he":"ספרייית עטרת"}},{"type":"way","id":544110474,"center":{"lat":32.071565,"lon":34.8604064},"tags":{"addr:city":"פתח תקווה","amenity":"library","building":"civic","name":"ספריית אליפים","official_name":"ספריית אליפים על שם הסופרת אסתר שטרייט-וורצל","official_name:he":"ספריית אליפים ע''ש הסופרת אסתר שטרייט-וורצל"}},{"type":"way","id":548223383,"center":{"lat":31.9346728,"lon":35.1421285},"tags":{"amenity":"library","building":"yes"}},{"type":"way","id":555943753,"center":{"lat":32.3450598,"lon":34.8577509},"tags":{"amenity":"hospital","healthcare":"hospital"}},{"type":"way","id":556797725,"center":{"lat":31.9069012,"lon":34.8084714},"tags":{"alt_name:en":"Goldschleger Life Sciences Library","amenity":"library","building":"university","building:levels":"1","fixme":"name, name:he mismatch. Flagged by SafwatHalaby_bot-nameCopy","name":"ספריית גולדשלגר","name:en":"Maurice and Gabriela Goldschleger Life Sciences Library","name:he":"ספריה למדעי החיים ע\"ש מוריס וגבריאלה גולדשלגר"}},{"type":"way","id":616135573,"center":{"lat":31.9005911,"lon":34.796672},"tags":{"amenity":"hospital","healthcare":"hospital"}},{"type":"way","id":657259635,"center":{"lat":32.1543088,"lon":34.8992583},"tags":{"access":"customers","amenity":"hospital","healthcare":"hospital","healthcare:speciality":"psychiatry;child_psychiatry","name":"מרכז בריאות הנפש שלוותה","name:ar":"شلفاتا","name:en":"Shalvata","name:he":"מרכז בריאות הנפש שלוותה","wikidata":"Q4519784"}},{"type":"way","id":680567545,"center":{"lat":32.1743083,"lon":34.8972778},"tags":{"addr:city":"כפר סבא","addr:housenumber":"21","addr:street":"זאב גלר","amenity":"hospital","healthcare":"hospital","healthcare:speciality":"geriatrics","name":"היחידה לגריאטריה שיקומית","name:he":"היחידה לגריאטריה שיקומית","operator":"שירותי בריאות כללית","website":"https://hospitals.clalit.co.il/meir/he/med/Geriatric/Pages/hosp.aspx"}},{"type":"way","id":684825570,"center":{"lat":32.0738373,"lon":35.173652},"tags":{"addr:city":"سلفيت","addr:street":"شارع القدس","amenity":"hospital","healthcare":"hospital","name":"مستشفى الشهيد ياسر عرفات الحكومي","wikidata":"Q30081250"}},{"type":"way","id":701627792,"center":{"lat":32.2226902,"lon":35.0007263},"tags":{"amenity":"library","building":"yes"}},{"type":"way","id":702522147,"center":{"lat":32.2912163,"lon":34.8620971},"tags":{"addr:city":"נתניה","addr:housenumber":"3","addr:street":"המחקר","amenity":"cinema","brand":"Cinema City","brand:wikidata":"Q543651","brand:wikipedia":"en:Cinema City International","building":"yes","name":"Cinema City","name:en":"Cinema City","payment:cash":"yes","payment:credit_cards":"yes"}},{"type":"way","id":704989732,"center":{"lat":32.0804114,"lon":35.0870561},"tags":{"amenity":"library","building":"yes","lit":"yes"}},{"type":"way","id":753105966,"center":{"lat":32.1712402,"lon":35.0151453},"tags":{"amenity":"library","building":"yes","building:levels":"2","name":"ספריה ציבורית אלפי מנשה","name:he":"ספריה ציבורית אלפי מנשה"}},{"type":"way","id":763415643,"center":{"lat":32.2344505,"lon":34.8616571},"tags":{"amenity":"hospital","barrier":"wall","healthcare":"hospital","name":"בית חולים קרית שלמה","name:en":"Kiryat Shlomo Hospital","name:he":"בית חולים קרית שלמה","wikidata":"Q20851173"}},{"type":"way","id":861051427,"center":{"lat":32.0479867,"lon":34.8747324},"tags":{"amenity":"library","building":"yes","name":"Yad Lebanim Library","name:en":"Yad Lebanim Library","operator":"Savyon Municipality","operator:type":"public","phone":"+972-3-7370916"}},{"type":"way","id":896267803,"center":{"lat":32.1311681,"lon":34.9691266},"tags":{"amenity":"library","building":"yes","description":"أسست المكتبة العامة في كفر برا عام 1997 اعيد ترميمها وتنظيمها وترتيبها من جديد عام 2011 تحتوي المكتبة على مجموعة قيمة من الكتب الدينية والتاريخية والروايات العربية والعالمية والموسوعات العلمية والثقافية والكتب المتنوعة اهتمت المكتبة بتخصيص زاوية للاطفال","internet_access":"yes","layer":"1","name":"مكتبة البروفيسور مراد محمد عاصي","name:ar":"مكتبة البروفيسور مراد محمد عاصي","name:en":"Prof. Morad Asi Public library","name:he":"ספריית הפרופ' מוראד עאסי","website":"http://kfarbara.libweb.org.il/%d8%b9%d9%86-%d8%a7%d9%84%d9%85%d9%83%d8%aa%d8%a8%d8%a9/"}},{"type":"way","id":944269358,"center":{"lat":32.0905072,"lon":34.8666492},"tags":{"amenity":"hospital","building":"yes","building:levels":"1","building:part":"yes","emergency":"yes","healthcare":"hospital","layer":"1"}},{"type":"way","id":944364932,"center":{"lat":32.256007,"lon":34.9206016},"tags":{"amenity":"library","building":"yes"}},{"type":"way","id":1002396043,"center":{"lat":32.1773833,"lon":34.8031491},"tags":{"amenity":"hospital","healthcare":"hospital","name":"הרצליה מדיקל סנטר","name:en":"Herzliya Medical Center","name:he":"הרצליה מדיקל סנטר","short_name":"HMC"}},{"type":"way","id":1008073018,"center":{"lat":32.3976319,"lon":34.9130678},"tags":{"amenity":"library","building":"yes"}},{"type":"way","id":1061505052,"center":{"lat":32.1802921,"lon":34.8700851},"tags":{"amenity":"library","building":"yes"}},{"type":"way","id":1083582215,"center":{"lat":31.9513959,"lon":35.0474676},"tags":{"amenity":"hospital","healthcare":"hospital","name":"Dair Qeddis Health Center","name:ar":"ممركز صحي دير قديس"}},{"type":"way","id":1155977494,"center":{"lat":31.8243302,"lon":34.6823646},"tags":{"amenity":"library","building":"yes","name":"ספרית ניר גלים","name:he":"ספרית ניר גלים","opening_hours":"Tu,Fr 16:00-18:00"}},{"type":"way","id":1168420574,"center":{"lat":32.1058023,"lon":34.8123288},"tags":{"amenity":"cinema","building":"yes","building:levels":"1","name":"סינמה לונה","name:en":"Cinema Luna","name:he":"סינמה לונה","tourism":"attraction","website":"https://www.lunapark.co.il/?categoryId=72521&itemId=310672"}},{"type":"way","id":1311041735,"center":{"lat":32.0550647,"lon":34.8171598},"tags":{"amenity":"library","building":"school","name":"Blich School Library","name:he":"ספריית בליך"}},{"type":"way","id":1332739006,"center":{"lat":31.9414096,"lon":34.8254003},"tags":{"amenity":"library","building":"yes"}},{"type":"way","id":1463233444,"center":{"lat":31.748787,"lon":34.9853655},"tags":{"addr:city":"בית שמש","addr:housenumber":"4","addr:street":"ויצו","amenity":"library","building":"yes","fax":"+972-2-9991715","name":"ספרייה עירונית","opening_hours":"Su-Th 08:00-12:00,14:30-18:45; Fr 08:00-11:45","phone":"+972-2-9912385","website":"https://betshemesh.agronplus.org/"}},{"type":"way","id":1490510574,"center":{"lat":32.3148799,"lon":35.0303079},"tags":{"addr:housename":"مستشفى ثابت ثابت","amenity":"hospital","building":"hospital","designation":"دليل طولكرم الطبي","emergency":"yes","healthcare":"hospital","name":"مستشفى ثابت ثابت","name:ar":"مستشفى ثابت ثابت","note":"تمت الاضافة بواسطة دليل طولكرم الطبي الالكتروني","source":"شارع المستشفى","wikidata":"Q55965634"}},{"type":"relation","id":19575410,"center":{"lat":31.9060197,"lon":34.8033852},"tags":{"amenity":"library","building":"yes","name":"קנדי-לי - ספריה","name:he":"קנדי-לי - ספריה","type":"multipolygon"}},{"type":"node","id":297360353,"lat":32.2751161,"lon":34.8442688,"tags":{"amenity":"fast_food","brand":"McDonald's","brand:wikidata":"Q38076","brand:wikipedia":"en:McDonald's","cuisine":"burger","is_in":"Poleg","name":"מקדונלד'ס","name:ar":"ماكدونالدز","name:en":"McDonald's","name:he":"מקדונלד'ס","website":"https://www.mcdonalds.co.il/","wheelchair":"yes"}},{"type":"node","id":297360692,"lat":32.2215781,"lon":34.8289406,"tags":{"amenity":"fast_food","brand":"McDonald's","brand:wikidata":"Q38076","brand:wikipedia":"en:McDonald's","cuisine":"burger","is_in":"Gash","name":"מקדונלד'ס","name:ar":"ماكدونالدز","name:en":"McDonald's","name:he":"מקדונלד'ס","website":"https://www.mcdonalds.co.il/"}},{"type":"node","id":340456300,"lat":32.2758914,"lon":34.860831,"tags":{"amenity":"fast_food","brand":"McDonald's","brand:wikidata":"Q38076","brand:wikipedia":"en:McDonald's","cuisine":"burger","name":"מקדונלד'ס","name:ar":"ماكدونالدز","name:en":"McDonald's","name:he":"מקדונלד'ס","website":"https://www.mcdonalds.co.il/","wheelchair":"yes"}},{"type":"node","id":365381859,"lat":32.3270513,"lon":34.8581415,"tags":{"amenity":"fast_food","brand":"McDonald's","brand:wikidata":"Q38076","brand:wikipedia":"en:McDonald's","cuisine":"burger","is_in":"Netanya","name":"מקדונלד'ס","name:ar":"ماكدونالدز","name:en":"McDonald's","name:he":"מקדונלד'ס","opening_hours":"Su-Th 09:30-23:00; Fr 09:30-22:00; Sa 11:00-23:00","website":"https://www.mcdonalds.co.il/","wifi":"yes"}},{"type":"node","id":392815888,"lat":32.3045781,"lon":34.9019489,"tags":{"amenity":"fast_food","brand":"McDonald's","brand:wikidata":"Q38076","brand:wikipedia":"en:McDonald's","cuisine":"burger","is_in":"Pardesiyya","name":"מקדונלד'ס","name:ar":"ماكدونالدز","name:en":"McDonald's","name:he":"מקדונלד'ס","website":"https://www.mcdonalds.co.il/"}},{"type":"node","id":760044584,"lat":31.7568564,"lon":34.9861021,"tags":{"amenity":"fast_food","brand":"McDonald's","brand:wikidata":"Q38076","brand:wikipedia":"en:McDonald's","cuisine":"burger","name":"מקדונלד'ס","name:ar":"ماكدونالدز","name:en":"McDonald's","name:he":"מקדונלד'ס","website":"https://www.mcdonalds.co.il/"}},{"type":"node","id":1449511298,"lat":32.2205689,"lon":34.9824335,"tags":{"amenity":"fast_food","brand":"McDonald's","brand:wikidata":"Q38076","brand:wikipedia":"en:McDonald's","cuisine":"burger","name":"מקדונלד'ס","name:ar":"ماكدونالدز","name:en":"McDonald's","name:he":"מקדונלד'ס","website":"https://www.mcdonalds.co.il/"}},{"type":"node","id":1517893555,"lat":31.9090498,"lon":34.8054578,"tags":{"amenity":"fast_food","brand":"McDonald's","brand:wikidata":"Q38076","brand:wikipedia":"en:McDonald's","cuisine":"burger","name":"מקדונלד'ס","name:ar":"ماكدونالدز","name:en":"McDonald's","name:he":"מקדונלד'ס","website":"https://www.mcdonalds.co.il/"}},{"type":"node","id":1683224123,"lat":32.0153132,"lon":34.75645,"tags":{"amenity":"fast_food","brand":"McDonald's","brand:wikidata":"Q38076","brand:wikipedia":"en:McDonald's","cuisine":"burger","name":"מקדונלד'ס","name:ar":"ماكدونالدز","name:en":"McDonald's","name:he":"מקדונלד'ס","website":"https://www.mcdonalds.co.il/"}},{"type":"node","id":3170079949,"lat":32.3835032,"lon":34.8673848,"tags":{"amenity":"fast_food","brand":"McDonald's","brand:wikidata":"Q38076","brand:wikipedia":"en:McDonald's","cuisine":"burger","name":"מקדונלד'ס","name:ar":"ماكدونالدز","name:en":"McDonald's","name:he":"מקדונלד'ס","website":"https://www.mcdonalds.co.il/"}},{"type":"node","id":3507194993,"lat":32.1916323,"lon":34.8916284,"tags":{"amenity":"fast_food","brand":"McDonald's","brand:wikidata":"Q38076","brand:wikipedia":"en:McDonald's","cuisine":"burger","name":"מקדונלד'ס","name:ar":"ماكدونالدز","name:en":"McDonald's","name:he":"מקדונלד'ס","website":"https://www.mcdonalds.co.il/"}},{"type":"node","id":3713934565,"lat":32.1473689,"lon":34.8387737,"tags":{"addr:city":"רמת השרון","addr:housenumber":"81","addr:street":"סוקולוב","amenity":"fast_food","brand":"McDonald's","brand:wikidata":"Q38076","brand:wikipedia":"en:McDonald's","contact:instagram":"https://www.instagram.com/mcdonalds_israel/","contact:youtube":"https://www.youtube.com/channel/UCnSlYxuKLfCFfb9h9Lpw_PQ","cuisine":"burger","delivery":"yes","diet:kosher":"no","internet_access":"wlan","name":"מקדונלד'ס","name:ar":"ماكدونالدز","name:en":"McDonald's","name:he":"מקדונלד'ס","opening_hours":"Mo-Su 11:30-22:15; Fr 11:00-22:00; Sa 11:00-22:15","outdoor_seating":"no","takeaway":"yes","website":"https://www.mcdonalds.co.il/","wheelchair":"yes"}},{"type":"node","id":3734869707,"lat":32.3067083,"lon":34.8688243,"tags":{"amenity":"fast_food","brand":"McDonald's","brand:wikidata":"Q38076","brand:wikipedia":"en:McDonald's","cuisine":"burger","name":"מקדונלד'ס","name:ar":"ماكدونالدز","name:en":"McDonald's","name:he":"מקדונלד'ס","website":"https://www.mcdonalds.co.il/"}},{"type":"node","id":3812213462,"lat":31.8630569,"lon":34.8165746,"tags":{"amenity":"fast_food","brand":"McDonald's","brand:wikidata":"Q38076","brand:wikipedia":"en:McDonald's","cuisine":"burger","name":"מקדונלד'ס","name:ar":"ماكدونالدز","name:en":"McDonald's","name:he":"מקדונלד'ס","website":"https://www.mcdonalds.co.il/"}},{"type":"node","id":3859590613,"lat":32.0075211,"lon":34.799084,"tags":{"amenity":"fast_food","brand":"McDonald's","brand:wikidata":"Q38076","brand:wikipedia":"en:McDonald's","cuisine":"burger","name":"מקדונלד'ס","name:ar":"ماكدونالدز","name:en":"McDonald's","name:he":"מקדונלד'ס","website":"https://www.mcdonalds.co.il/"}},{"type":"node","id":4155170783,"lat":32.0935218,"lon":34.9733018,"tags":{"amenity":"fast_food","brand":"McDonald's","brand:wikidata":"Q38076","brand:wikipedia":"en:McDonald's","name":"מקדונלד'ס","name:ar":"ماكدونالدز","name:en":"McDonald's","name:he":"מקדונלד'ס","website":"https://www.mcdonalds.co.il/"}},{"type":"node","id":4160749997,"lat":32.0759527,"lon":34.885362,"tags":{"amenity":"fast_food","brand":"McDonald's","brand:wikidata":"Q38076","brand:wikipedia":"en:McDonald's","check_date":"2025-11-16","cuisine":"burger","delivery":"yes","name":"מקדונלד'ס","name:ar":"ماكدونالدز","name:en":"McDonald's","name:he":"מקדונלד'ס","takeaway":"yes","website":"https://www.mcdonalds.co.il/"}},{"type":"node","id":4376848005,"lat":32.1654966,"lon":34.927527,"tags":{"amenity":"fast_food","brand":"McDonald's","brand:wikidata":"Q38076","brand:wikipedia":"en:McDonald's","cuisine":"burger","name":"מקדונלד'ס","name:ar":"ماكدونالدز","name:en":"McDonald's","name:he":"מקדונלד'ס","website":"https://www.mcdonalds.co.il/"}},{"type":"node","id":6597193609,"lat":32.2793279,"lon":34.845943,"tags":{"amenity":"fast_food","brand":"McDonald's","brand:wikidata":"Q38076","brand:wikipedia":"en:McDonald's","cuisine":"burger","name":"McDonald's","name:en":"McDonald's","takeaway":"yes"}},{"type":"node","id":12050619162,"lat":32.0655017,"lon":34.7828026,"tags":{"brand":"7-Eleven","brand:wikidata":"Q259340","name":"7-Eleven","shop":"convenience"}},{"type":"node","id":12098842443,"lat":32.1971709,"lon":34.8787697,"tags":{"amenity":"fast_food","brand":"McDonald's","brand:wikidata":"Q38076","brand:wikipedia":"en:McDonald's","cuisine":"burger","level":"0","name":"McDonald's","survey:date":"2024-08-08","takeaway":"yes"}},{"type":"node","id":340382877,"lat":32.0976031,"lon":34.7816095,"tags":{"leisure":"park","name":"גן הבנים","name:en":"Gan HaBanim","name:he":"גן הבנים","start_date":"2002","website":"https://park.co.il/domain/גן-הבנים/","wikidata":"Q112624938","wikipedia":"he:גן הבנים (תל אביב-יפו)","wikipedia:he":"גן הבנים (תל אביב-יפו)"}},{"type":"node","id":358533497,"lat":32.0985848,"lon":34.8057304,"tags":{"addr:housenumber":"73","addr:street":"קוסובסקי","alt_name:en":"Bird's Head;Rosh Tsipor","description":"פארק ראש ציפור הוא פארק עם ציפורים בתוך פארק הירקון.","leisure":"park","name":"ראש ציפור","name:en":"Rosh Zipor","name:he":"ראש ציפור","tourism":"attraction","website":"https://park.co.il/domain/%d7%a4%d7%90%d7%a8%d7%a7-%d7%94%d7%a6%d7%a4%d7%a8%d7%95%d7%aa","wikidata":"Q41808451"}},{"type":"node","id":432264566,"lat":31.9897376,"lon":35.1673954,"tags":{"leisure":"park","name":"Cobar Park"}},{"type":"node","id":432265529,"lat":32.0505275,"lon":35.1262694,"tags":{"leisure":"park","name":"Qarawat Bani Zaid","name:ar":"منتزة قراوة بني زيد"}},{"type":"node","id":432270821,"lat":32.0507099,"lon":35.1261988,"tags":{"leisure":"park","name":"Bani Zeid Park","name:ar":"منتزة بني زيد"}},{"type":"node","id":432297199,"lat":31.959583,"lon":35.1863633,"tags":{"leisure":"park","name":"Al Marg Park and resturaunt","name:ar":"حديقة ومطعم المرج"}},{"type":"node","id":432305789,"lat":32.1654239,"lon":34.9740357,"tags":{"leisure":"park","name":"Hablah","name:ar":"منتزة حبلة","name:en":"Hablah"}},{"type":"node","id":432357848,"lat":32.11958,"lon":35.0749211,"tags":{"leisure":"park","name":"Beddia Public Garden","name:ar":"حديقة عامة","name:en":"Beddia Public Garden"}},{"type":"node","id":432373830,"lat":32.3586678,"lon":35.0632199,"tags":{"leisure":"park","name":"Al Ein Park","name:ar":"منتزه ومسبح العين","name:en":"Al Ein Park"}},{"type":"node","id":432419720,"lat":32.2855406,"lon":35.0189749,"tags":{"leisure":"park","name":"Faroun Park","name:ar":"منتزه فرعون","name:en":"Faroun Park"}},{"type":"node","id":2357299306,"lat":32.3110432,"lon":35.0241862,"tags":{"leisure":"park","name":"منتزه بلدية طولكرم"}},{"type":"node","id":3586585809,"lat":32.1660066,"lon":34.8037152,"tags":{"leisure":"park","name":"Karbi","name:en":"Karbi"}},{"type":"node","id":4056086595,"lat":31.9803698,"lon":35.0126647,"tags":{"leisure":"park","name":"qibya park"}},{"type":"node","id":4307211773,"lat":32.0687788,"lon":35.2237152,"tags":{"leisure":"park","name":"جبل طروجة","name:ar":"جبل طروجة","name:en":"Tarrouja","name:fr":"Tarrouja"}},{"type":"node","id":4352580769,"lat":32.015653,"lon":35.194689,"tags":{"leisure":"park","name":"سفاري Safari"}},{"type":"node","id":4425083354,"lat":32.0439102,"lon":34.7690644,"tags":{"leisure":"park"}},{"type":"node","id":4591777675,"lat":32.1194269,"lon":35.046997,"tags":{"leisure":"park","name":"Park carob","name:en":"Park carob"}},{"type":"node","id":4603287993,"lat":31.9717156,"lon":35.1041861,"tags":{"leisure":"park","name":"النبي غيث"}},{"type":"node","id":4689533322,"lat":32.0502026,"lon":35.0881246,"tags":{"leisure":"park","name":"الخواص"}},{"type":"node","id":4938123237,"lat":32.3125522,"lon":35.0272378,"tags":{"leisure":"park","name":"جمال","name:ar":"جمال عبدالناصر","shop":"supermarket"}},